,local date,local time,location,lat,lon,aqi,h,p,pm10,pm25,so2,t,w,wg,co,no2,o3,dew,r
0,2020-03-21,23:00:00,"88, Via Duca d'Aosta, Sant'Andrea / Štandrež, Gorizia, UTI Collio - Alto Isonzo, Friuli Venezia Giulia, 34170, Italia",45.93701316,13.61633301,68,57.0,1020.0,22.0,68.0,1.3,8.8,1.3,5.0,,,,,
1,2020-03-21,23:00:00,"Impianto Hera Ambiente, Via Enrico Fermi, Bagnolo, Forlì, Unione di Comuni della Romagna Forlivese, Forlì-Cesena, Emilia-Romagna, 47100, Italia",44.229397,12.089160000000001,78,72.0,1017.5,32.0,78.0,,12.5,2.5,8.7,0.1,8.7,40.3,,
2,2020-03-21,23:00:00,"Al Camino, Via Borgo Vico, Bignanico, Vico, Como, Lombardia, 22100, Italia",45.81504217,9.06697886,59,50.6,1013.2,22.0,59.0,0.6,5.3,7.3,11.6,0.1,14.2,47.6,,
3,2020-03-19,23:00:00,"Scuola Primaria Giosuè Carducci, Viale Ugo Bassi, Campo di Marte, Quartiere 2, Firenze, Toscana, 50137, Italia",43.784169388287,11.286879604208,59,69.0,1010.6,19.0,59.0,0.9,16.1,,,0.1,17.0,,10.4,
4,2020-03-23,07:00:00,"SP163, Sant'Agata Irpina, Solofra, Avellino, Campania, 83025, Italia",40.83555,14.824589999999999,6,1.0,1013.7,34.0,72.0,0.7,0.5,,,6.4,1.4,,,
5,2020-03-23,06:00:00,"Via del Carmine, Fratte, Brignano Inferiore, Salerno, Campania, 84126, Italia",40.683890000000005,14.769720000000001,28,1.0,1013.7,15.0,28.0,,0.5,,,1.0,1.8,,,
6,2020-03-19,23:00:00,"Cantavenna, Gabiano, Alessandria, Piemonte, Italia",45.159718,8.226189100000001,95,87.5,1014.3,,95.0,,2.7,0.2,,0.1,,,,
7,2020-03-21,23:00:00,"SP460, Borgiallo, Ceresole Reale, Torino, Piemonte, Italia",45.432177200000005,7.234306699999999,38,,,,38.0,,0.0,4.0,,,,,,
8,2020-03-21,23:00:00,"22/A, Piazza Conti di Rebaudengo, Rebaudengo, Torino, Piemonte, 10155, Italia",45.104332,7.6964231,70,61.2,1022.7,,70.0,,6.9,4.7,15.2,0.1,,,,
9,2020-03-21,23:00:00,"8, Via Stazzone, Tantlòn, Cervia, Ravenna, Emilia-Romagna, 48016, Italia",44.283857,12.332249000000001,39,71.0,1018.0,30.0,102.0,5.1,12.0,6.1,,0.1,3.7,39.0,7.0,
10,2020-03-21,23:00:00,"Via Verdi, San Pasquale, Cassino, Frosinone, Lazio, Italia",41.4907889,13.833377599999999,112,31.0,1021.4,47.0,112.0,0.7,21.1,8.0,12.0,0.1,11.0,19.1,,
11,2020-03-21,23:00:00,"Passeggiata Michele Alboreto, Villaggio Artigiano, San Faustino-Madonnina-Quattroville, Modena, Emilia-Romagna, 41124, Italia",44.651569,10.907312,61,85.2,1014.6,26.0,61.0,,9.0,5.2,9.0,,14.2,39.0,,
12,2020-03-21,23:00:00,"22a, Viale Stradone, Borgo Durbecco, Modigliana, Faenza, Unione della Romagna Faentina, Ravenna, Emilia-Romagna, 48018, Italia",44.285612,11.873396000000001,76,61.6,1016.9,30.0,76.0,,12.9,2.6,4.3,,6.0,38.6,,
13,2020-03-21,23:00:00,"iperoil, Via Cipro, Balduina, Quartiere XIV Trionfale, Roma, Roma Capitale, Lazio, 00165, Italia",41.9071831,12.446687599999999,74,46.0,1009.5,27.0,74.0,0.3,19.5,3.6,10.0,0.1,12.4,19.9,,
14,2020-03-21,23:00:00,"Piccoli, Via Paribelli, Sondrio, Comunità Montana della Valtellina di Sondrio, Sondrio, Lombardia, 23100, Italia",46.16785664,9.87921169,50,62.0,1021.4,13.0,50.0,,8.8,1.0,12.0,,6.0,41.1,,
15,2020-03-21,23:00:00,"Carana, Corte Brugnatella, Piacenza, Emilia-Romagna, Italia",44.734728000000004,9.366928,45,96.5,1014.6,8.0,85.0,,3.8,2.2,4.7,0.1,6.9,44.7,,
16,2020-03-21,23:00:00,"Ghiaroni, Molinella, Bologna, Emilia-Romagna, 40062, Italia",44.654232025,11.624819755999999,74,61.9,1018.9,30.0,74.0,,10.4,1.5,,0.1,6.4,40.3,3.4,
17,2020-03-23,07:00:00,"Scuola Media Statale Francesco Solimena, Via Francesco Nola, Casale del Pozzo, Nocera Inferiore, Salerno, Campania, 84014, Italia",40.7404,14.64345,3,53.0,1015.6,53.0,113.0,3.0,6.3,16.0,32.0,1.9,2.5,,,
18,2020-03-21,23:00:00,"Via Antonio Meucci, Loreto, Bergamo, Lombardia, 24128, Italia",45.691044,9.64366225,74,51.2,1024.7,25.0,74.0,,5.1,1.5,,0.1,9.2,45.5,,
19,2020-03-19,23:00:00,"25/11, Via del Ponticello, Sottoservola, Servola-Chiarbola-Valmaura-Borgo San Sergio, Trieste / Trst, UTI Giuliana / Julijska MTU, Friuli Venezia Giulia, 34146, Italia",45.62062,13.783760999999998,65,43.0,1022.0,38.0,65.0,2.1,16.1,4.0,12.0,,,,,
20,2020-03-21,23:00:00,"21, Via Quartiere Don Reverberi, Castellarano, Tresinaro - Secchia, Reggio nell'Emilia, Emilia-Romagna, 42014, Italia",44.516242,10.733905,70,85.2,1014.6,23.0,70.0,,9.0,5.2,9.0,,13.8,43.1,,
21,2020-03-21,23:00:00,"Strada Provinciale 64 Prealpina Orobica, Cassina Valsassina, Lecco, Lombardia, 23817, Italia",45.91279097,9.49754261,55,69.7,1022.4,20.0,55.0,,2.6,2.0,5.5,,4.6,49.6,,
22,2020-03-21,23:00:00,"Farmacia, 5, Piazza Benedetto Cairoli, Rione VII Regola, Municipio Roma I, Roma, Roma Capitale, Lazio, 00186, Italia",41.8932669,12.4753855,42,46.0,1009.5,31.0,42.0,,19.5,3.6,10.0,,12.8,17.9,,
23,2020-03-21,23:00:00,"Via Guglielmo Marconi, Sant'Agata, Ferentino, Frosinone, Lazio, 03013, Italia",41.695678799999996,13.2577285,117,52.6,1004.7,44.0,117.0,0.7,13.8,1.8,6.2,0.1,4.2,26.9,,
24,2020-03-21,23:00:00,"7, Via Pietro Giordani, Baia del Re, Piacenza, Emilia-Romagna, 29121, Italia",45.048840000000006,9.693265,17,83.0,1013.1,17.0,78.0,,9.4,,,0.1,14.7,36.2,,
25,2020-03-21,23:00:00,"Giardino Centro Studi, Piazza Maestri del Lavoro, San Giorgio, Rorai Grande, Pordenone, UTI del Noncello, Friuli Venezia Giulia, 33170, Italia",45.962624,12.655944,97,66.6,1020.9,39.0,97.0,,11.3,1.7,6.0,,,,,
26,2020-03-23,07:00:00,"Via della Salute, Portici, Napoli, Campania, 80055, Italia",40.81588,14.34927,30,47.5,1017.0,24.0,86.0,,9.0,5.1,,,2.2,30.3,-1.5,
27,2020-03-21,23:00:00,"30/D, Corso Corsica, Lingotto, Torino, Piemonte, 10134, Italia",45.031427799999996,7.651743799999999,76,61.2,1022.7,,76.0,,6.9,4.7,15.2,,,,,
28,2020-03-21,23:00:00,"Via Stefano Molli, Santa Croce di Borgomanero, Borgomanero, Novara, Piemonte, 28013, Italia",45.6989656,8.460604400000001,61,62.6,1025.0,,61.0,,4.7,1.3,7.1,0.1,,,,
29,2020-03-21,23:00:00,"Via Libertà, Cornale e Bastida, Pavia, Lombardia, Italia",45.04008561,8.91415717,74,4.0,,,74.0,,9.1,11.8,14.3,0.1,7.8,41.5,,
30,2020-03-21,23:00:00,"Isidoro e Maria - Pizzeria Friggitoria, Viale Roma, La Pietrara, Le Muratelle, Guidonia Montecelio, Roma Capitale, Lazio, 00010, Italia",41.9939694,12.7245045,89,49.0,1009.9,30.0,89.0,0.3,17.2,,,,9.2,21.2,,
31,2020-03-21,23:00:00,"Scuola Secondaria di Primo Grado Don G. Ticozzi, 48, Via Mentana, Rancio Inferiore, San Giovanni, Lecco, Lombardia, 23900, Italia",45.86375372,9.39995481,61,69.7,1022.4,20.0,61.0,,2.6,2.0,5.5,,10.1,43.9,,
32,2020-03-19,23:00:00,"Via Raffaello Gambogi, Ardenza, Montenero basso, Livorno, Toscana, 57128, Italia",43.517506738783,10.321031260215,55,48.0,1014.0,15.0,55.0,,19.0,6.9,,0.1,18.3,28.9,8.0,
33,2020-03-21,23:00:00,"Via Canale, Cento, Unione Alto Ferrarese, Ferrara, Emilia-Romagna, 44042, Italia",44.733011,11.299659,42,66.2,1016.7,29.0,93.0,,11.1,10.9,2.0,0.1,13.8,41.5,,
34,2020-03-19,23:00:00,"Via Giovanni Pascoli, Montelonti, Poggibonsi, Siena, Toscana, 53036, Italia",43.470437486833,11.141284549758,59,43.2,1012.8,19.0,59.0,,18.0,7.2,10.2,,14.7,,,
35,2020-03-23,07:00:00,"Stadio Ciro Vigorito, Rotonda degli Atleti, Trappeto, Libertà, Benevento, Campania, 82100, Italia",41.11575,14.779979999999998,33,45.6,1017.9,14.0,91.0,,10.0,6.7,16.2,,1.3,32.5,,
36,2020-03-21,23:00:00,"Ufficio elettorale, Via Elvio Copelli, Motta, Casbeno, Varese, Lombardia, 21100, Italia",45.8169745,8.82024911,76,50.5,1027.4,21.0,76.0,,6.3,11.0,14.0,0.1,22.9,,,
37,2020-03-21,23:00:00,"Via Malpasso, Caselle, Schivenoglia, Unione dei comuni Isola Mantovana, Mantova, Lombardia, Italia",45.01688067,11.07609728,93,51.2,1026.9,41.0,93.0,2.6,5.0,20.1,26.7,0.1,9.2,49.2,,
38,2020-03-21,23:00:00,"Bersano, Besenzone, Parma, Emilia-Romagna, 43011, Italia",44.9895,10.019200999999999,55,61.5,1016.3,16.0,55.0,5.1,11.6,9.1,15.5,0.1,6.4,38.2,,
39,2020-03-21,23:00:00,"5, Via Giuseppe Saragat, Vedole, Colorno, Parma, Emilia-Romagna, 43052, Italia",44.925963,10.371914,87,99.0,999.9,33.0,87.0,5.1,12.2,,0.1,,6.4,32.1,,
40,2020-03-21,23:00:00,"Punta Ravenna, Ravenna, Emilia-Romagna, 48122, Italia",44.443746000000004,12.253247,82,77.3,1019.8,33.0,82.0,5.1,10.9,14.3,18.3,0.1,12.8,29.7,,
41,2020-03-23,07:00:00,"Via Filippo Brunelleschi, Caserta, Casolla, Caserta, Campania, 81100, Italia",41.08444,14.34472,38,46.0,1017.0,17.0,38.0,,10.0,5.1,,,1.8,33.8,-1.0,
42,2020-03-21,23:00:00,"Parcheggio caserma I. Vian, Via Vecchia di Borgo San Dalmazzo, Cuneo, Piemonte, 12100, Italia",44.37031760000001,7.5251893,70,61.3,1018.2,,70.0,,5.5,1.0,3.6,0.1,,,,
43,2020-03-23,06:00:00,"Vico I Gagliardi, Municipalità 3, Napoli, Campania, 80137, Italia",40.85419,14.25133,36,54.0,1017.3,21.0,36.0,,9.0,5.3,,2.8,6.9,,,
44,2020-03-21,23:00:00,"Bretella Treviglio-Casirate, Casirate d'Adda, Bergamo, Lombardia, 24047, Italia",45.49822794,9.55624181,82,48.0,1025.0,30.0,82.0,,5.0,4.6,,,10.6,45.5,-5.0,
45,2020-03-21,23:00:00,"Villa Sandi, Via Sandi, Zona Industriale 2, Casa Engandina, Fiorano Modenese, Unione dei comuni del Distretto Ceramico, Modena, Emilia-Romagna, 41042, Italia",44.542152405,10.819877625,23,85.2,1014.6,23.0,68.0,,9.0,5.2,9.0,,13.3,31.7,,
46,2020-03-21,23:00:00,"via C. Battisti, Spinadesco, Cremona, Lombardia, 26028, Italia",45.15047339,9.93059842,89,41.0,1023.2,30.0,89.0,,5.5,11.2,21.5,,13.3,44.3,,
47,2020-03-21,23:00:00,"Via Padre Sergio Mossoni, Darfo Boario Terme, Comunità montana della valle Camonica, Brescia, Lombardia, 25041, Italia",45.87460256,10.17736553,72,59.7,1023.0,22.0,72.0,,6.6,8.5,16.0,,7.4,48.0,,
48,2020-03-21,23:00:00,"Via Cassia, Chiusarelle, Acquapendente, Viterbo, Lazio, 01021, Italia",42.7477229,11.8630202,63,60.0,1013.9,21.0,63.0,0.6,16.1,12.0,14.0,0.1,2.3,28.5,,
49,2020-03-23,07:00:00,"Via Appia, San Vitaliano, Napoli, Campania, 80023, Italia",40.92431,14.481329999999998,36,45.7,1017.8,59.0,119.0,3.5,9.9,6.8,16.3,,2.7,36.1,,
50,2020-03-21,23:00:00,"Villa Zorn, 113, Via Cesare da Sesto, Rondò, Torretta, Sesto San Giovanni, Milano, Lombardia, 20099, Italia",45.53476819,9.23610903,70,49.7,1023.3,,70.0,,6.9,,,0.1,23.8,,,
51,2020-03-21,23:00:00,"9, Via Malvista, Ponte dei Rossi, Mirandola, Unione Comuni Modenesi Area Nord, Modena, Emilia-Romagna, Italia",44.928769,11.178946,102,62.5,1019.6,37.0,102.0,,10.8,16.8,22.6,0.1,9.6,39.8,,
52,2020-03-21,23:00:00,"Casanova Madonna della Strada, Leonessa, Rieti, Lazio, Italia",42.5660721,12.962444999999999,65,69.8,1005.2,20.0,65.0,0.6,7.7,0.6,1.8,0.1,2.8,37.8,,
53,2020-03-21,23:00:00,"Via delle Caselle, Albarola, Sant'Andrea, Lodi, Lombardia, 26900, Italia",45.30278678,9.49528589,87,53.5,1023.3,35.0,87.0,,6.6,6.5,19.5,,22.9,42.3,,
54,2020-03-21,23:00:00,"Via Danimarca, Colle Laghetto, Guidonia Montecelio, Roma Capitale, Lazio, 00012, Italia",41.96440629999999,12.6684397,68,41.0,1011.1,30.0,68.0,0.3,20.0,2.0,4.0,,9.6,21.2,,
55,2020-03-21,23:00:00,"188c, Via Remesina Interna, Il Borgo, Cibeno Pile, Carpi, Unione delle Terre d'Argine, Modena, Emilia-Romagna, 41012, Italia",44.800377000000005,10.884255,37,65.5,1020.4,28.0,112.0,,11.6,5.0,12.5,,12.8,37.0,,
56,2020-03-21,23:00:00,"30, Via Orlando Zanchini, Cotogni, Forlì, Unione di Comuni della Romagna Forlivese, Forlì-Cesena, Emilia-Romagna, 47100, Italia",44.215153,12.048160000000001,80,61.6,1016.9,28.0,80.0,,12.9,2.6,4.3,0.1,10.6,40.3,,
57,2020-03-21,23:00:00,"7, Piazzale Antonio Rosmini, Città Nuova-Barriera Nuova-San Vito-Città Vecchia, Trieste / Trst, UTI Giuliana / Julijska MTU, Friuli Venezia Giulia, 34143, Italia",45.640485999999996,13.766081,72,48.1,1018.6,26.0,72.0,0.7,6.4,10.2,,,,,-3.8,99.6
58,2020-03-21,23:00:00,"Via Curtatone e Montanara, Barco, Ferrara, Emilia-Romagna, 44121, Italia",44.85998,11.61,93,51.6,1019.0,30.0,93.0,,11.4,2.0,,0.1,8.3,41.1,,
59,2020-03-21,23:00:00,"SP72, Malcantone, Torrile, Parma, Emilia-Romagna, 43056, Italia",44.890934,10.399611,76,99.0,999.9,30.0,76.0,5.1,12.2,,0.1,,6.4,32.1,,
60,2020-03-21,23:00:00,"051 Zerocinquantuno, 236, Via Emilia, Cicogna, San Lazzaro di Savena, Bologna, Emilia-Romagna, 40068, Italia",44.467189000000005,11.416601,59,79.2,1015.6,20.0,59.0,,11.1,5.0,8.8,0.1,11.0,31.7,,
61,2020-03-21,23:00:00,"Piazza Marconi, Regina Pacis, Rieti, Lazio, Italia",42.404509000000004,12.8567281,65,52.3,1008.7,19.0,65.0,0.6,16.5,1.0,2.1,0.1,1.4,29.7,,
62,2020-03-21,23:00:00,"Scuola Primaria ""Aldo Mei"", Via Pietro Mascagni, Beinasco, Torino, Piemonte, 10092, Italia",45.030563799999996,7.595250999999999,76,48.2,1026.1,,76.0,,6.8,7.8,13.1,,,,,
63,2020-03-21,23:00:00,"44, Via Predil, Rivabella, Covignano, Rimini, Emilia-Romagna, 47921, Italia",44.064308167,12.552490234,80,66.0,1018.0,30.0,80.0,,12.0,5.1,,,14.2,36.6,6.0,
64,2020-03-21,23:00:00,"Scuola di equitazione, Viale Alexander Dubcek, Quartiere II Parioli, Roma, Roma Capitale, Lazio, 00199, Italia",41.9328321,12.501247300000001,82,46.0,1009.5,30.0,82.0,0.3,19.5,3.6,10.0,0.1,11.0,19.1,,
65,2020-03-21,23:00:00,"Badia di Santa Maria della Neve, Strada della Badia, Vigatto, Langhirano, Parma, Emilia-Romagna, 43037, Italia",44.658226,10.289367,59,99.0,999.9,21.0,59.0,,12.2,,0.1,,6.0,41.9,,
66,2020-03-21,23:00:00,"Modena-Bastiglia, Albareto, Crocetta-San Lazzaro-Modena Est, Modena, Emilia-Romagna, 41122, Italia",44.670378,10.9623,82,85.2,1014.6,31.0,82.0,,9.0,5.2,9.0,,11.0,33.3,,
67,2020-03-21,23:00:00,"Prato Novello, Alto Reno Terme, Unione dell'Alto Reno, Bologna, Emilia-Romagna, 40042, Italia",44.140440000000005,10.917166,50,92.3,1015.1,21.0,50.0,,7.0,5.2,12.1,,3.7,17.5,,
68,2020-03-22,10:00:00,"Ottati, Salerno, Campania, 84020, Italia",40.470596,15.298722999999995,11,1.0,1010.5,25.0,70.0,0.1,0.5,,,10.9,2.8,,,
69,2020-03-21,23:00:00,"47, Via Cicognaia, Savignano di Rigo, Sogliano al Rubicone, Unione Rubicone e mare, Forlì-Cesena, Emilia-Romagna, 47863, Italia",43.927406,12.224794000000001,42,85.5,1017.6,28.0,122.0,,8.1,2.0,7.7,,4.2,42.3,,
70,2020-03-21,23:00:00,"Via Caduti del Lavoro, Calusco d'Adda, Bergamo, Lombardia, 24039, Italia",45.69043647,9.48426111,59,54.6,1026.1,21.0,59.0,1.1,5.3,0.5,0.5,0.1,6.9,42.3,,
71,2020-03-19,23:00:00,"Via di Paganico, Tassignano, Capannori, Lucca, Toscana, 55012, Italia",43.838363142651,10.573105456095,89,46.4,1015.2,33.0,89.0,1.4,17.8,17.6,20.2,,18.3,,,
72,2020-03-23,07:00:00,"Via Piave, Ponticelli, Contrada Bagnoli, Avellino, Campania, 83100, Italia",40.918820000000004,14.78553,2,45.8,1017.8,57.0,136.0,,9.8,6.8,16.6,1.9,1.8,,,
73,2020-03-20,23:00:00,"Via degli Ospedalieri, Zaist, Cremona, Lombardia, 26100, Italia",45.14254358,10.04384767,107,41.0,1023.2,52.0,107.0,1.1,5.5,11.2,21.5,0.1,27.5,37.8,,
74,2020-03-19,23:00:00,"Porto di Trieste, Androna Sant'Eufemia, Città Nuova-Barriera Nuova-San Vito-Città Vecchia, Trieste / Trst, UTI Giuliana / Julijska MTU, Friuli Venezia Giulia, 34123, Italia",45.62420762,13.78026035,57,51.0,1021.0,19.0,57.0,1.1,14.4,5.0,10.0,,,,,
75,2020-03-21,23:00:00,"Cittadella playground, Via Passo Buole, Cittadella, Parma, Emilia-Romagna, 43121, Italia",44.792419,10.330985,72,99.0,999.9,32.0,72.0,,12.2,,0.1,,8.3,34.2,,
76,2020-03-21,23:00:00,"Libera Università Internazionale degli Studi Sociali (LUISS) Guido Carli, Via Panama, Municipio Roma II, Roma, Roma Capitale, Lazio, 00197, Italia",41.9248746,12.4934413,85,46.0,1009.5,34.0,85.0,0.3,19.5,3.6,10.0,0.1,4.2,21.2,,
77,2020-03-21,23:00:00,"Liceo Classico J. Stellini, Via Benedetto Cairoli, Borgo Pracchiuso, Casali Osellin, Udine, UTI del Friuli Centrale, Friuli Venezia Giulia, 33100, Italia",46.06611716,13.2406876,87,51.0,1019.6,32.0,87.0,1.3,10.5,10.0,13.0,,,,,
78,2020-03-21,23:00:00,"11, Via Alberto Artioli, Villaggio Zeta, San Faustino-Madonnina-Quattroville, Modena, Emilia-Romagna, 41124, Italia",44.636984999999996,10.905724000000001,27,85.2,1014.6,27.0,93.0,,9.0,5.2,9.0,,17.0,33.3,,
79,2020-03-19,23:00:00,"Mariottini, Via Ristoro d'Arezzo, Arezzo, Colle di Santa Maria, Arezzo, Toscana, 52100, Italia",43.458591187680994,11.888247347751,55,56.0,1015.5,16.0,55.0,,17.2,4.0,11.0,,16.5,,,
80,2020-03-21,23:00:00,"Via Verra, Madonna delle Grazie, Bettole, Trecate, Novara, Piemonte, 28069, Italia",45.4371054,8.7452213,80,56.7,1026.6,,80.0,,5.9,6.2,13.5,,,,,
81,2020-03-21,23:00:00,"12, Via Luigi Cavalchi, Ponte Nuovo, Ravenna, Emilia-Romagna, 48121, Italia",44.42778396600001,12.186494827,33,75.0,1019.5,33.0,102.0,5.1,11.2,11.5,15.8,0.1,12.4,40.7,,
82,2020-03-21,23:00:00,"Via di Villa Guglielmi, Isola Sacra, Fiumicino, Roma Capitale, Lazio, 00121, Italia",41.7702662,12.236676800000001,74,49.5,1013.0,26.0,74.0,0.6,17.0,3.0,,0.1,11.9,22.0,6.5,
83,2020-03-23,07:00:00,"CAM Casoria Contemporary Art Museum, 63, Via Duca d'Aosta, Arpino, Casoria, Napoli, Campania, 80031, Italia",40.914629999999995,14.29866,23,46.0,1017.0,46.0,106.0,,10.0,5.1,,,4.0,23.1,-1.0,
84,2020-03-21,23:00:00,"66/A, Via Edoardo Rubino, Centro Europa, Mirafiori Nord, Torino, Piemonte, 10137, Italia",45.040214899999995,7.6227648,76,61.2,1022.7,,76.0,,6.9,4.7,15.2,,,,,
85,2020-03-21,23:00:00,"27, Via Molino Bianco, Verucchio, Unione di comuni Valmarecchia, Rimini, Emilia-Romagna, 47827, Italia",44.013877,12.420964,99,85.5,1017.6,20.0,99.0,,8.1,2.0,7.7,,6.0,40.7,,
86,2020-03-21,23:00:00,"Varco ZTL, Via Andrea Verga, Geromina, Treviglio, Bergamo, Lombardia, 24047, Italia",45.51933533,9.59201917,65,50.0,1025.0,30.0,65.0,0.6,6.0,5.4,,0.1,16.5,,-3.5,
87,2020-03-21,23:00:00,"11, Via Madonnina, San Rocco, Guastalla, Bassa Reggiana, Reggio nell'Emilia, Emilia-Romagna, 42016, Italia",44.873727,10.664777,87,65.5,1020.4,33.0,87.0,,11.6,5.0,12.5,0.1,6.0,39.4,,
88,2020-03-19,23:00:00,"Via Vittor Pisani, Fontanini, Viareggio, Unione dei comuni della Versilia, Lucca, Toscana, 55043, Italia",43.881437296938,10.244316772468,82,42.0,1013.4,30.0,82.0,,20.5,7.0,8.0,,28.8,,,
89,2020-03-19,23:00:00,"Via Amerigo Vespucci, Montale, Pistoia, Toscana, 51031, Italia",43.913660405481004,11.006226278906,61,64.0,1016.1,20.0,61.0,,14.1,13.7,24.0,0.1,22.4,,,
90,2020-03-21,23:00:00,"Piscina Comunale, Viale 9 febbraio 1849, San Giovanni, San Martino Monte L'Abate, Rimini, Emilia-Romagna, 47900, Italia",44.052101135,12.575679779000001,35,66.0,1018.0,35.0,91.0,,12.0,5.1,,0.1,12.8,35.4,6.0,
91,2020-03-21,23:00:00,"Via Paradigna, San Martino, Parma, Emilia-Romagna, 43122, Italia",44.841275,10.344572,72,99.0,999.9,30.0,72.0,5.1,12.2,,0.1,,9.6,34.2,,
92,2020-03-21,23:00:00,"Bezze, Torrile, Parma, Emilia-Romagna, 43056, Italia",44.921606,10.326172999999999,82,99.0,999.9,33.0,82.0,5.1,12.2,,0.1,,10.6,32.1,,
93,2020-03-21,23:00:00,"Str. da Sora a Fontechiari, Fontechiari, Frosinone, Lazio, 03033, Italia",41.668821,13.675500099999999,1,31.0,1021.4,20.0,61.0,0.7,21.1,8.0,12.0,0.1,6.0,19.1,,
94,2020-03-21,23:00:00,"stazione meteo, Via San Martino e Solferino, Cascina Basioli, Ponti sul Mincio, Mantova, Lombardia, 37019, Italia",45.41277633,10.68336214,127,45.6,1018.8,51.0,127.0,,6.3,4.1,,,12.4,43.1,-4.6,
95,2020-03-21,23:00:00,"8, Viale Antonio Gramsci, Grandi Italiani, Forlì, Unione di Comuni della Romagna Forlivese, Forlì-Cesena, Emilia-Romagna, 47100, Italia",44.215973999999996,12.057502000000001,31,61.6,1016.9,31.0,70.0,,12.9,2.6,4.3,0.1,14.2,37.8,,
96,2020-03-23,07:00:00,"Via Italo Calvino, Acerra, Napoli, Campania, 80011, Italia",40.97971,14.401,3,46.0,1017.0,46.0,129.0,2.9,10.0,5.1,,1.9,1.2,,-1.0,
97,2020-03-21,23:00:00,"Via Nicolò Macchiavelli, Molinetto, San Giuseppe, Monza, Monza e della Brianza, Lombardia, 20900, Italia",45.574117,9.263808000000001,70,51.3,1024.1,26.0,70.0,2.1,5.9,9.3,15.6,0.1,23.4,50.0,,
98,2020-03-21,23:00:00,"Scuola Media Leon Battista Alberti, Via Fratelli Cairoli, Fiera-Catena, Mantova, Lombardia, 46 100, Italia",45.16057658,10.79557331,104,46.5,1026.7,46.0,104.0,,5.5,15.8,26.3,0.1,12.8,43.1,,
99,2020-03-21,23:00:00,"Esselunga, Santo Stefano esterna, Reggio nell'Emilia, Emilia-Romagna, Italia",44.69955,10.622759,78,65.5,1020.4,25.0,78.0,,11.6,5.0,12.5,0.1,19.2,38.6,,
100,2020-03-21,23:00:00,"11/H, Via Statale, Cernusco Lombardone, Lecco, Lombardia, 23870, Italia",45.69795956,9.40619194,65,54.7,1025.4,26.0,65.0,,5.0,5.7,,0.1,11.5,46.8,,
101,2020-03-21,23:00:00,"7, Viale Mario Angeloni, Quartiere Centro Urbano, Cesena, Unione dei comuni Valle del Savio, Forlì-Cesena, Emilia-Romagna, 47521, Italia",44.141382,12.244744,35,72.0,1017.5,35.0,85.0,,12.5,2.5,8.7,0.1,11.5,38.2,,
102,2020-03-23,07:00:00,"Via G. Clarizia, Stella, Santa Lucia, Battipaglia, Salerno, Campania, 84091, Italia",40.61107,14.97584,32,1.0,1013.7,20.0,68.0,2.7,0.5,,,,3.1,31.9,,
103,2020-03-21,23:00:00,"Convento francescano, Via Montemaggio, Ca' Torsano, San Leo, Unione di comuni Valmarecchia, Rimini, Emilia-Romagna, 47865, Italia",43.907219,12.401233,40,85.5,1017.6,28.0,85.0,,8.1,2.0,7.7,,3.7,39.8,,
104,2020-03-23,07:00:00,"Via Ottavio Caiazzo, Municipalità 5, Napoli, Campania, 80129, Italia",40.84936,14.231110000000001,-,54.5,1017.3,31.0,,,8.7,5.8,,,6.7,,,
105,2020-03-16,23:00:00,"Palestra Comunale, Via Isonzo, Monfalcone, UTI Carso Isonzo Adriatico / MTU Kras Soča Jadran, Friuli Venezia Giulia, 34074, Italia",45.805178000000005,13.522051999999999,-,64.5,1023.0,10.0,38.0,0.1,15.5,2.3,9.7,,,,9.0,
106,2020-03-21,23:00:00,"4, Largo Garibaldini sassolesi, Rometta, Sassuolo, Unione dei comuni del Distretto Ceramico, Modena, Emilia-Romagna, 41049, Italia",44.540382385,10.792358398,61,85.2,1014.6,25.0,61.0,,9.0,5.2,9.0,,14.7,38.6,,
107,2020-03-21,23:00:00,"Via Latina, Colleferro Scalo, Colleferro, Roma Capitale, Lazio, 00034, Italia",41.7272528,13.0037837,112,44.0,1011.2,43.0,112.0,0.2,17.7,5.0,12.0,0.1,7.8,26.0,,
108,2020-03-21,23:00:00,"Padiglione Besta, Via Giovanni Amendola, San Lazzaro, Reggio nell'Emilia, Emilia-Romagna, 42122, Italia",44.689042,10.663591,78,85.2,1014.6,30.0,78.0,,9.0,5.2,9.0,0.1,8.7,38.6,,
109,2020-03-21,23:00:00,"Via Limosano, Zona VI Settecamini, Roma, Roma Capitale, Lazio, 00115, Italia",41.936339700000005,12.654414599999999,97,49.0,1009.9,37.0,97.0,0.3,17.2,,,,10.1,21.2,,
110,2020-03-21,23:00:00,"Autostrada dei Vini, Capitolo, Piacenza, Emilia-Romagna, 29122, Italia",45.05442047100001,9.726859093,72,83.0,1013.1,24.0,72.0,,9.4,,,0.1,14.2,40.3,,
111,2020-03-21,23:00:00,"Piazza Luigi Cadorna, Corso Vittorio Emanuele II, La Cascinetta, Cremona, Lombardia, 26100, Italia",45.13195042,10.01574064,85,42.0,1022.7,30.0,85.0,1.6,6.1,10.6,20.6,0.1,14.7,,,
112,2020-03-19,23:00:00,"1, Via Eraclea, Fossalon di Grado, Grado, UTI Carso Isonzo Adriatico / MTU Kras Soča Jadran, Friuli Venezia Giulia, 34073, Italia",45.731621999999994,13.486355999999999,57,64.5,1023.0,17.0,57.0,1.3,15.5,2.3,9.7,,,,9.0,
113,2020-03-21,23:00:00,"10, Via Quinto Rossi, Mizzana, Ferrara, Emilia-Romagna, 44044, Italia",44.849548,11.562287,82,51.6,1019.0,30.0,82.0,,11.4,2.0,,0.1,10.6,39.4,,
114,2020-03-23,06:00:00,"Area sosta Sannio camper club, 59, Via Domenico Mustilli, Trescene, Ponticelli, Benevento, Campania, 82100, Italia",41.13146,14.78938,26,45.8,1017.8,14.0,26.0,,9.8,6.9,17.1,,3.7,,,
115,2020-03-21,23:00:00,"Vittorio Emanuele II, Viale Massimo Meliconi, Santo Stefano, Bologna, Emilia-Romagna, 40125, Italia",44.483628,11.355035,59,79.7,1019.0,21.0,59.0,,11.1,4.2,10.0,0.1,11.9,31.7,,
116,2020-03-21,23:00:00,"Belcantone, Borgo Panigale-Reno, Bologna, Emilia-Romagna, Italia",44.500093,11.286064999999999,63,71.0,1019.0,21.0,63.0,,12.0,4.1,,0.1,16.0,38.6,7.0,
117,2020-03-21,23:00:00,"Chiesa Cristiana Evangelica, Via del Pioppeto, Latina, Lazio, 04013, Italia",41.5338395,12.9467669,80,51.8,1010.0,30.0,80.0,0.2,18.6,0.6,4.5,0.1,9.2,30.0,,
118,2020-03-23,07:00:00,"Via Giovanni Calzolaio, Acerra, Napoli, Campania, 80011, Italia",40.94108,14.369810000000001,-,46.0,1017.0,31.0,103.0,,10.0,5.1,,6.4,2.5,,-1.0,
119,2020-03-21,23:00:00,"Via Monsignore P. Anglese, Buscarella, Sannazzaro de' Burgondi, Pavia, Lombardia, 27039, Italia",45.10277464,8.90418742,74,4.0,,24.0,74.0,22.3,10.3,13.2,13.8,,13.8,,,
120,2020-03-21,23:00:00,"Via della Precacesa, San Fereolo, Lodi, Lombardia, 26900, Italia",45.30601628,9.48527511,61,51.7,1022.6,31.0,61.0,2.1,7.2,7.7,15.5,0.1,17.4,,,
121,2020-03-21,23:00:00,"Salita della Memoria, Brescia Antica, Zona Centro, Brescia, Lombardia, 25121, Italia",45.54006456,10.22281989,91,45.2,1014.0,34.0,91.0,,6.1,19.8,25.7,0.1,13.3,,,
122,2020-03-21,23:00:00,"Piazza Giuseppe Verdi, Via Guglielmo Marconi, Centro Giovanni XXIII, Viterbo, Lazio, 01100, Italia",42.4206766,12.107669,59,46.0,1014.0,20.0,59.0,0.6,17.2,4.0,6.0,0.1,1.9,28.9,,
123,2020-03-21,23:00:00,"6, Via Grazia Deledda, Bogolese, Sorbolo Mezzani, Parma, Emilia-Romagna, 43058, Italia",44.829145000000004,10.391537,76,99.0,999.9,30.0,76.0,5.1,12.2,,0.1,,16.5,34.2,,
124,2020-03-19,23:00:00,"Piazza Cesare Beccaria, San Niccolò, Quartiere 1, Firenze, Toscana, 50121, Italia",43.770585907976,11.271415330415001,57,69.0,1010.6,19.0,57.0,0.9,16.1,,,0.1,33.4,,10.4,
125,2020-03-23,07:00:00,"Chiesa Sacra Famiglia, Via Nicola Buonservizi, Fratte, Brignano Inferiore, Salerno, Campania, 84135, Italia",40.69536,14.777510000000001,29,1.0,1013.7,,78.0,,0.5,,,,2.3,28.5,,
126,2020-03-21,23:00:00,"4, Via Giorgio Compiani, Cittadella, Parma, Emilia-Romagna, 43121, Italia",44.786636353,10.33647728,72,99.0,999.9,31.0,72.0,,12.2,,0.1,,17.9,34.2,,
127,2020-03-19,23:00:00,"88, Via XXIV Maggio, I Passi, Porta a Lucca, Pisa, Toscana, 56123, Italia",43.73635268547,10.400971437911,72,42.0,1013.4,26.0,72.0,,20.5,7.0,8.0,0.1,22.0,,,
128,2020-03-21,23:00:00,"Nizzarolo, Piacenza, Emilia-Romagna, 29122, Italia",45.055889,9.747946,70,83.0,1013.1,25.0,70.0,,9.4,,,0.1,19.7,36.2,,
129,2020-03-21,23:00:00,"Osservatorio Astronomico “Pierino Zambonini”, Via Rescadore, Rescadore, Villa Minozzo, Appennino Reggiano, Reggio nell'Emilia, Emilia-Romagna, 42030, Italia",44.300708,10.431042,70,59.4,1026.3,18.0,70.0,,16.4,4.8,7.1,,3.7,35.8,,
130,2020-03-23,07:00:00,"Chiesa di Sant'Antonio da Padova, Corso Pietro Giannone, Caserta, Aldifreda, Caserta, Campania, 81100, Italia",41.07795,14.331220000000002,10,46.0,1017.0,36.0,85.0,,10.0,5.1,,10.0,2.5,,-1.0,
131,2020-03-21,23:00:00,"3/3A, Viale Antonio Silvani, Saragozza-Porto, Bologna, Emilia-Romagna, 40122, Italia",44.500017,11.328501,63,71.0,1019.0,24.0,63.0,,12.0,4.1,,0.1,22.9,34.2,7.0,
132,2020-03-21,23:00:00,"21, Viale della Repubblica, Fiumicino, Savignano sul Rubicone, Unione Rubicone e mare, Forlì-Cesena, Emilia-Romagna, 47039, Italia",44.096869,12.403328,99,73.7,1017.4,43.0,99.0,,11.6,6.2,14.1,,13.3,38.6,,
133,2020-03-21,23:00:00,"Monumento ai tre Martiri Toscani, Viale Giuseppe Mazzini, Centro Storico, Frosinone, Lazio, 03100, Italia",41.63729,13.35094,109,52.6,1004.7,42.0,109.0,0.7,13.8,1.8,6.2,0.1,6.9,26.9,,
134,2020-03-23,07:00:00,"Europa, Bottiglieri, Salerno, Campania, Italia",40.66142,14.80449,32,1.0,1013.7,35.0,67.0,0.1,0.5,,,4.6,0.4,32.3,,
135,2020-03-21,23:00:00,"Via Valentino Cigliutti, Municipio Roma XII, Roma, Roma Capitale, Lazio, Italia",41.883706,12.3337009,167,46.0,1009.5,71.0,167.0,0.6,19.5,3.6,10.0,0.1,8.3,19.5,,
136,2020-03-21,23:00:00,"Soresina, Cremona, Lombardia, 26015, Italia",45.28398,9.86340258,95,41.0,1022.8,39.0,95.0,,6.1,12.0,23.0,,,,,
137,2020-03-21,23:00:00,"Tamoil, Via Barbi, Capo di Villa, Borgocarbonara, Mantova, Lombardia, 45037, Italia",45.04650286,11.18094889,95,52.0,1026.3,44.0,95.0,,5.5,22.6,31.0,,6.4,,,
138,2020-03-18,23:00:00,"PAM, 132, Via Emilio Boni, Soccorso, La Pietà, Prato, Toscana, 59100, Italia",43.872401192971,11.104666288873998,-,59.0,1014.7,25.0,65.0,,15.5,13.0,22.0,0.1,23.8,,,
139,2020-03-23,07:00:00,"Via della Libertà, Maddaloni, Caserta, Campania, 81024, Italia",41.04592,14.37809,-,47.5,1017.0,32.0,80.0,,9.0,5.1,,,2.7,10.6,-1.5,
140,2020-03-23,07:00:00,"Municipalità 3, Napoli, Campania, 80137, Italia",40.863690000000005,14.25451,18,46.0,1017.0,34.0,95.0,,10.0,5.1,,1.0,2.3,18.2,-1.0,
141,2020-03-18,07:00:00,"Liceo Classico Domenico Cirillo, Via Vittorio Colonna, Aversa, Caserta, Campania, 81031, Italia",40.97548,14.2114,2,43.5,1023.8,35.0,84.0,,20.0,5.5,9.5,1.9,12.9,,,
142,2020-03-23,07:00:00,"Istituto Comprensivo ""Aldo Moro"" Plesso Cancello, Via XXI Giugno, San Felice a Cancello, Caserta, Campania, 81027, Italia",40.990520000000004,14.42397,32,46.0,1017.0,36.0,89.0,0.2,10.0,5.1,,1.0,1.4,32.0,-1.0,
143,2020-03-21,23:00:00,"SP4 di Bardi, Tirolini, Lugagnano Val D'Arda, Piacenza, Emilia-Romagna, 20914, Italia",44.823890000000006,9.830369000000001,41,83.0,1013.1,16.0,76.0,,9.4,,,0.1,12.4,41.1,,
144,2020-03-19,23:00:00,"Via Iugoslavia, Sugherella, Grosseto, Toscana, 58100, Italia",42.77621678315,11.118456357026998,68,50.0,1013.0,21.0,68.0,,12.0,3.6,,,23.8,,2.0,
145,2020-03-23,06:00:00,"Burger King, Corso Novara, Municipalità 4, Napoli, Campania, 80142, Italia",40.853609999999996,14.27167,45,47.5,1017.0,23.0,45.0,0.4,9.0,5.1,,1.9,3.6,,-1.5,
146,2020-03-21,23:00:00,"Tangenziale Sud, Besurica, Piacenza, Emilia-Romagna, 29100, Italia",45.038544,9.669349,72,83.0,1013.1,31.0,72.0,,9.4,,,0.1,6.9,40.3,,
147,2020-03-21,23:00:00,"Stradone Bentivoglio, Taglio Corelli, Alfonsine, Unione dei comuni della Bassa Romagna, Ravenna, Emilia-Romagna, 48011, Italia",44.527432,11.982355,72,75.0,1019.5,40.0,72.0,5.1,11.2,11.5,15.8,0.1,6.4,32.5,,
148,2020-03-21,23:00:00,"80, Via Diaz, Il Poggio, San Clemente, Rimini, Emilia-Romagna, 47832, Italia",43.93183,12.62728,89,66.0,1018.0,30.0,89.0,,12.0,5.1,,,5.1,40.3,6.0,
149,2020-03-21,23:00:00,"Via Bagno, Cascina Camerona, Cerano, Novara, Piemonte, 28065, Italia",45.4099034,8.7875429,91,55.0,1025.0,,91.0,,6.1,8.4,19.0,,,,,
150,2020-03-21,23:00:00,"Centro Fusetti, 8, Piazza Santuario, Stella, Cascinazza, Saronno, Varese, Lombardia, 21047, Italia",45.626104,9.025004,68,45.0,1024.8,23.0,68.0,,6.3,7.5,11.0,,12.4,48.4,,
151,2020-03-19,23:00:00,"Pista Viale Roma, Bargana, Massa, Massa-Carrara, Toscana, 54100, Italia",44.029626188391,10.133072297499,63,53.0,1026.0,20.0,63.0,,18.3,7.0,8.0,,24.7,,,
152,2020-03-19,23:00:00,"Via Ferrara, Soccorso, Le Badie, Prato, Toscana, 59100, Italia",43.87191227785999,11.092564625561,57,59.0,1014.7,19.0,57.0,,15.5,13.0,22.0,0.1,27.9,,,
153,2020-03-19,23:00:00,"36, Via Alfredo Catalani, Stazione, Campo di Marte, Livorno, Toscana, 57124, Italia",43.552268087855,10.329007715785,57,48.0,1014.0,20.0,57.0,,19.0,6.9,,0.1,37.5,,8.0,
154,2020-03-21,23:00:00,"22, Via della Cittadella, Centro cittadino, Giardino, Ferrara, Emilia-Romagna, 44121, Italia",44.842488,11.613141,33,51.6,1019.0,33.0,102.0,,11.4,2.0,,0.1,12.8,39.4,,
155,2020-03-21,23:00:00,"Località Gherardi, Jolanda di Savoia, Ferrara, Emilia-Romagna, Italia",44.839749,11.961252,72,67.5,1016.0,29.0,72.0,,10.8,11.7,12.5,0.1,4.2,40.3,,
156,2020-03-21,23:00:00,"Via Senato, Guastalla, Porta Venezia, Milano, Lombardia, 20121, Italia",45.470501,9.19746075,78,49.7,1023.3,33.0,78.0,,6.9,,,0.1,26.6,,,
157,2020-03-21,23:00:00,"Lamarmora, Zona Sud, Brescia, Lombardia, Italia",45.515945,10.21914764,119,47.4,1014.4,44.0,119.0,1.6,5.5,14.8,19.4,,12.4,41.9,,
158,2020-03-21,23:00:00,"59, Via delle Mandriole, Villa Fulvia, Ferrara, Emilia-Romagna, 44100, Italia",44.824263,11.649617999999998,70,62.5,1019.2,28.0,70.0,,11.8,3.5,11.7,0.1,6.9,39.8,,
159,2020-03-21,23:00:00,"245a, Via Tommaso Gulli, Borgo San Rocco, Ponte Nuovo, Ravenna, Emilia-Romagna, 48122, Italia",44.419261,12.225385000000001,87,77.3,1019.8,32.0,87.0,5.1,10.9,14.3,18.3,0.1,11.0,40.3,,
160,2020-03-23,06:00:00,"SS162dir, Municipalità 6, Napoli, Campania, 80147, Italia",40.86427,14.341079999999998,82,46.0,1017.0,50.0,82.0,1.6,10.0,5.1,,4.6,6.7,,-1.0,
161,2020-03-21,23:00:00,"Via Giuseppe Verdi, Dalmine, Bergamo, Lombardia, 24044, Italia",45.64971,9.60123469,85,50.0,1025.0,26.0,85.0,,6.0,5.4,,0.1,9.6,,-3.5,
162,2020-03-21,23:00:00,"45, Via Ardengo Folperti, Città Giardino, Pavia, Lombardia, 27100, Italia",45.19468231,9.16464919,80,47.0,1026.1,25.0,80.0,2.1,6.1,6.5,19.1,,19.7,44.3,,
163,2020-03-21,23:00:00,"17, Strada del Mezzano, I Corni, Ostellato, Unione dei comuni Valli e Delizie, Ferrara, Emilia-Romagna, 44020, Italia",44.740896,11.941937,63,62.5,1019.2,29.0,63.0,,11.8,3.5,11.7,0.1,6.4,41.9,,
164,2020-03-21,23:00:00,"Viale Staffarda, Cascina Flesie, Revello, Cuneo, Piemonte, Italia",44.72021229999999,7.4383072,70,71.8,1021.4,,70.0,,7.3,2.1,3.5,,,,,
165,2020-03-19,23:00:00,"Facoltà di Economia, Via Cosimo Ridolfi, La Cella, Pisa, Toscana, 56127, Italia",43.71153749249,10.409876134347,74,42.0,1013.4,25.0,74.0,,20.5,7.0,8.0,0.1,27.9,,,
166,2020-03-21,23:00:00,"1A, Via Coraglia, Campanella, Imola, Nuovo Circondario Imolese, Bologna, Emilia-Romagna, 40026, Italia",44.355422,11.720672,27,48.0,1016.2,27.0,80.0,,5.0,8.5,,,13.8,36.6,,
168,2020-03-22,23:00:00,"Impianto Hera Ambiente, Via Enrico Fermi, Bagnolo, Forlì, Unione di Comuni della Romagna Forlivese, Forlì-Cesena, Emilia-Romagna, 47100, Italia",44.229397,12.089160000000001,50,42.0,1027.4,20.0,50.0,,6.9,0.5,11.0,0.1,5.5,29.3,,
171,2020-03-23,09:00:00,"SP163, Sant'Agata Irpina, Solofra, Avellino, Campania, 83025, Italia",40.83555,14.824589999999999,6,1.0,1014.7,26.0,59.0,0.6,0.5,,,5.5,1.6,,,
172,2020-03-23,08:00:00,"Via del Carmine, Fratte, Brignano Inferiore, Salerno, Campania, 84126, Italia",40.683890000000005,14.769720000000001,32,1.0,1014.8,15.0,32.0,,0.5,,,0.2,3.2,,,
183,2020-03-22,23:00:00,"Ghiaroni, Molinella, Bologna, Emilia-Romagna, 40062, Italia",44.654232025,11.624819755999999,46,35.7,1029.0,16.0,46.0,,4.3,1.5,,0.1,3.7,32.1,-9.6,
184,2020-03-23,09:00:00,"Scuola Media Statale Francesco Solimena, Via Francesco Nola, Casale del Pozzo, Nocera Inferiore, Salerno, Campania, 84014, Italia",40.7404,14.64345,3,56.0,1016.4,37.0,63.0,2.9,6.6,11.0,22.0,1.9,2.5,,,
192,2020-03-22,23:00:00,"Giardino Centro Studi, Piazza Maestri del Lavoro, San Giorgio, Rorai Grande, Pordenone, UTI del Noncello, Friuli Venezia Giulia, 33170, Italia",45.962624,12.655944,42,34.5,1029.5,10.0,42.0,,6.5,1.5,5.2,,,,,
193,2020-03-23,08:00:00,"Via della Salute, Portici, Napoli, Campania, 80055, Italia",40.81588,14.34927,32,44.5,1017.5,23.0,67.0,,11.0,5.4,,,2.7,32.0,-0.5,
202,2020-03-23,09:00:00,"Stadio Ciro Vigorito, Rotonda degli Atleti, Trappeto, Libertà, Benevento, Campania, 82100, Italia",41.11575,14.779979999999998,33,45.1,1018.5,32.0,55.0,,10.8,8.0,17.2,,1.6,32.5,,
206,2020-03-22,23:00:00,"5, Via Giuseppe Saragat, Vedole, Colorno, Parma, Emilia-Romagna, 43052, Italia",44.925963,10.371914,55,87.0,1008.7,11.0,55.0,5.1,7.7,,0.1,,3.7,26.4,,
208,2020-03-23,09:00:00,"Via Filippo Brunelleschi, Caserta, Casolla, Caserta, Campania, 81100, Italia",41.08444,14.34472,34,44.5,1017.5,15.0,33.0,,11.0,5.4,,,2.4,33.6,-0.5,
210,2020-03-23,08:00:00,"Vico I Gagliardi, Municipalità 3, Napoli, Campania, 80137, Italia",40.85419,14.25133,65,51.0,1017.8,29.0,65.0,,9.7,6.5,,2.8,6.1,,,
216,2020-03-23,09:00:00,"Via Appia, San Vitaliano, Napoli, Campania, 80023, Italia",40.92431,14.481329999999998,36,45.1,1018.5,32.0,58.0,3.4,10.8,8.0,17.2,,3.1,35.5,,
223,2020-03-22,23:00:00,"30, Via Orlando Zanchini, Cotogni, Forlì, Unione di Comuni della Romagna Forlivese, Forlì-Cesena, Emilia-Romagna, 47100, Italia",44.215153,12.048160000000001,53,38.0,1027.2,17.0,53.0,,5.5,6.5,10.5,0.1,3.7,29.3,,
226,2020-03-22,23:00:00,"SP72, Malcantone, Torrile, Parma, Emilia-Romagna, 43056, Italia",44.890934,10.399611,53,87.0,1008.7,18.0,53.0,5.1,7.7,,0.1,,3.7,32.1,,
227,2020-03-22,23:00:00,"051 Zerocinquantuno, 236, Via Emilia, Cicogna, San Lazzaro di Savena, Bologna, Emilia-Romagna, 40068, Italia",44.467189000000005,11.416601,42,46.5,1026.0,25.0,42.0,,3.8,5.5,10.5,0.1,4.2,21.6,,
232,2020-03-22,23:00:00,"Badia di Santa Maria della Neve, Strada della Badia, Vigatto, Langhirano, Parma, Emilia-Romagna, 43037, Italia",44.658226,10.289367,53,87.0,1008.7,20.0,53.0,,7.7,,0.1,,6.9,28.5,,
234,2020-03-22,23:00:00,"Prato Novello, Alto Reno Terme, Unione dell'Alto Reno, Bologna, Emilia-Romagna, 40042, Italia",44.140440000000005,10.917166,34,58.5,1020.8,21.0,34.0,,-0.2,8.0,17.5,,3.7,17.5,,
236,2020-03-22,23:00:00,"47, Via Cicognaia, Savignano di Rigo, Sogliano al Rubicone, Unione Rubicone e mare, Forlì-Cesena, Emilia-Romagna, 47863, Italia",43.927406,12.224794000000001,42,50.5,1027.7,10.0,85.0,,1.6,5.5,18.0,,4.2,41.5,,
239,2020-03-23,09:00:00,"Via Piave, Ponticelli, Contrada Bagnoli, Avellino, Campania, 83100, Italia",40.918820000000004,14.78553,3,45.3,1018.5,37.0,88.0,,10.7,8.2,17.4,2.8,3.7,,,
242,2020-03-22,23:00:00,"Cittadella playground, Via Passo Buole, Cittadella, Parma, Emilia-Romagna, 43121, Italia",44.792419,10.330985,55,87.0,1008.7,23.0,55.0,,7.7,,0.1,,4.2,26.9,,
250,2020-03-23,09:00:00,"CAM Casoria Contemporary Art Museum, 63, Via Duca d'Aosta, Arpino, Casoria, Napoli, Campania, 80031, Italia",40.914629999999995,14.29866,26,44.5,1017.5,35.0,86.0,,11.0,5.4,,,3.3,26.4,-0.5,
258,2020-03-22,23:00:00,"Via Paradigna, San Martino, Parma, Emilia-Romagna, 43122, Italia",44.841275,10.344572,50,87.0,1008.7,12.0,50.0,5.1,7.7,,0.1,,3.7,26.9,,
259,2020-03-22,23:00:00,"Bezze, Torrile, Parma, Emilia-Romagna, 43056, Italia",44.921606,10.326172999999999,53,87.0,1008.7,17.0,53.0,5.1,7.7,,0.1,,3.7,26.4,,
262,2020-03-22,23:00:00,"8, Viale Antonio Gramsci, Grandi Italiani, Forlì, Unione di Comuni della Romagna Forlivese, Forlì-Cesena, Emilia-Romagna, 47100, Italia",44.215973999999996,12.057502000000001,20,38.0,1027.2,20.0,80.0,,5.5,6.5,10.5,0.1,11.0,40.3,,
263,2020-03-23,09:00:00,"Via Italo Calvino, Acerra, Napoli, Campania, 80011, Italia",40.97971,14.401,3,44.5,1017.5,38.0,107.0,2.6,11.0,5.4,,1.9,1.5,,-0.5,
268,2020-03-22,23:00:00,"7, Viale Mario Angeloni, Quartiere Centro Urbano, Cesena, Unione dei comuni Valle del Savio, Forlì-Cesena, Emilia-Romagna, 47521, Italia",44.141382,12.244744,20,42.0,1027.4,20.0,99.0,,6.9,0.5,11.0,0.1,6.9,38.6,,
269,2020-03-23,09:00:00,"Via G. Clarizia, Stella, Santa Lucia, Battipaglia, Salerno, Campania, 84091, Italia",40.61107,14.97584,33,1.0,1014.8,20.0,56.0,2.8,0.5,,,,3.3,33.4,,
271,2020-03-23,09:00:00,"Via Ottavio Caiazzo, Municipalità 5, Napoli, Campania, 80129, Italia",40.84936,14.231110000000001,-,52.1,1017.7,31.0,,,9.5,4.6,,,7.7,,,
281,2020-03-23,08:00:00,"Area sosta Sannio camper club, 59, Via Domenico Mustilli, Trescene, Ponticelli, Benevento, Campania, 82100, Italia",41.13146,14.78938,42,45.2,1018.5,22.0,42.0,,10.8,8.1,17.4,,3.5,,,
282,2020-03-22,23:00:00,"Vittorio Emanuele II, Viale Massimo Meliconi, Santo Stefano, Bologna, Emilia-Romagna, 40125, Italia",44.483628,11.355035,42,42.5,1029.8,20.0,42.0,,4.4,7.5,16.0,0.1,7.8,21.6,,
283,2020-03-22,23:00:00,"Belcantone, Borgo Panigale-Reno, Bologna, Emilia-Romagna, Italia",44.500093,11.286064999999999,50,39.5,1028.5,17.0,50.0,,5.0,7.2,,0.1,4.6,24.4,-7.5,
285,2020-03-23,09:00:00,"Via Giovanni Calzolaio, Acerra, Napoli, Campania, 80011, Italia",40.94108,14.369810000000001,-,44.5,1017.5,31.0,63.0,,11.0,5.4,,6.4,3.0,,-0.5,
290,2020-03-22,23:00:00,"6, Via Grazia Deledda, Bogolese, Sorbolo Mezzani, Parma, Emilia-Romagna, 43058, Italia",44.829145000000004,10.391537,53,87.0,1008.7,16.0,53.0,5.1,7.7,,0.1,,3.7,26.9,,
292,2020-03-23,08:00:00,"Chiesa Sacra Famiglia, Via Nicola Buonservizi, Fratte, Brignano Inferiore, Salerno, Campania, 84135, Italia",40.69536,14.777510000000001,29,1.0,1014.7,,69.0,,0.5,,,,2.3,28.5,,
293,2020-03-22,23:00:00,"4, Via Giorgio Compiani, Cittadella, Parma, Emilia-Romagna, 43121, Italia",44.786636353,10.33647728,16,87.0,1008.7,16.0,72.0,,7.7,,0.1,,5.1,34.2,,
297,2020-03-23,09:00:00,"Chiesa di Sant'Antonio da Padova, Corso Pietro Giannone, Caserta, Aldifreda, Caserta, Campania, 81100, Italia",41.07795,14.331220000000002,11,44.5,1017.5,29.0,56.0,,11.0,5.4,,10.9,2.0,,-0.5,
298,2020-03-22,23:00:00,"3/3A, Viale Antonio Silvani, Saragozza-Porto, Bologna, Emilia-Romagna, 40122, Italia",44.500017,11.328501,50,39.5,1028.5,19.0,50.0,,5.0,7.2,,0.1,14.2,38.6,-7.5,
299,2020-03-22,23:00:00,"21, Viale della Repubblica, Fiumicino, Savignano sul Rubicone, Unione Rubicone e mare, Forlì-Cesena, Emilia-Romagna, 47039, Italia",44.096869,12.403328,34,43.0,1027.7,20.0,34.0,,5.5,8.7,17.5,0.1,7.4,31.7,,
301,2020-03-23,09:00:00,"Europa, Bottiglieri, Salerno, Campania, Italia",40.66142,14.80449,32,1.0,1014.7,27.0,61.0,0.1,0.5,,,4.6,2.3,31.6,,
306,2020-03-23,09:00:00,"Via della Libertà, Maddaloni, Caserta, Campania, 81024, Italia",41.04592,14.37809,-,46.0,1017.0,24.0,69.0,,11.0,4.6,,,4.7,10.6,0.0,
307,2020-03-23,09:00:00,"Municipalità 3, Napoli, Campania, 80137, Italia",40.863690000000005,14.25451,19,44.5,1017.5,33.0,60.0,,11.0,5.4,,1.0,2.6,18.7,-0.5,
309,2020-03-23,09:00:00,"Istituto Comprensivo ""Aldo Moro"" Plesso Cancello, Via XXI Giugno, San Felice a Cancello, Caserta, Campania, 81027, Italia",40.990520000000004,14.42397,32,44.5,1017.5,26.0,74.0,0.2,11.0,5.4,,1.0,1.7,31.9,-0.5,
312,2020-03-23,08:00:00,"Burger King, Corso Novara, Municipalità 4, Napoli, Campania, 80142, Italia",40.853609999999996,14.27167,22,44.5,1017.5,22.0,14.0,0.6,11.0,5.4,,1.9,5.3,,-0.5,
327,2020-03-23,08:00:00,"SS162dir, Municipalità 6, Napoli, Campania, 80147, Italia",40.86427,14.341079999999998,96,44.5,1017.5,52.0,96.0,2.8,11.0,5.4,,4.6,8.8,,-0.5,
333,2020-03-22,23:00:00,"1A, Via Coraglia, Campanella, Imola, Nuovo Circondario Imolese, Bologna, Emilia-Romagna, 40026, Italia",44.355422,11.720672,21,57.5,1027.1,21.0,76.0,,-1.9,12.0,,,7.8,38.6,,
338,2020-03-23,10:00:00,"SP163, Sant'Agata Irpina, Solofra, Avellino, Campania, 83025, Italia",40.83555,14.824589999999999,6,1.0,1014.9,26.0,59.0,0.6,0.5,,,5.5,1.6,,,
339,2020-03-23,09:00:00,"Via del Carmine, Fratte, Brignano Inferiore, Salerno, Campania, 84126, Italia",40.683890000000005,14.769720000000001,40,1.0,1014.9,14.0,40.0,,0.5,,,0.2,2.8,,,
351,2020-03-23,10:00:00,"Scuola Media Statale Francesco Solimena, Via Francesco Nola, Casale del Pozzo, Nocera Inferiore, Salerno, Campania, 84014, Italia",40.7404,14.64345,3,56.3,1016.6,37.0,63.0,3.0,6.6,9.6,22.3,1.9,2.4,,,
357,2020-03-21,23:00:00,"Via Guglielmo Marconi, Sant'Agata, Ferentino, Frosinone, Lazio, 03013, Italia",41.695678799999996,13.2577285,117,59.7,1006.7,44.0,117.0,0.7,9.1,1.0,4.2,0.1,4.2,,,
360,2020-03-23,10:00:00,"Via della Salute, Portici, Napoli, Campania, 80055, Italia",40.81588,14.34927,31,37.0,1018.0,23.0,67.0,,12.0,5.6,,,2.9,30.7,-2.0,
369,2020-03-23,09:00:00,"Stadio Ciro Vigorito, Rotonda degli Atleti, Trappeto, Libertà, Benevento, Campania, 82100, Italia",41.11575,14.779979999999998,33,45.6,1018.5,32.0,55.0,,10.7,9.3,17.8,,1.5,32.5,,
375,2020-03-23,10:00:00,"Via Filippo Brunelleschi, Caserta, Casolla, Caserta, Campania, 81100, Italia",41.08444,14.34472,44,37.0,1018.0,17.0,44.0,,12.0,5.6,,,2.4,33.3,-2.0,
377,2020-03-23,08:00:00,"Vico I Gagliardi, Municipalità 3, Napoli, Campania, 80137, Italia",40.85419,14.25133,65,51.0,1017.9,29.0,65.0,,9.8,6.2,,2.8,6.1,,,
383,2020-03-23,10:00:00,"Via Appia, San Vitaliano, Napoli, Campania, 80023, Italia",40.92431,14.481329999999998,36,45.6,1018.5,32.0,58.0,3.2,10.7,9.3,17.8,,2.8,35.6,,
406,2020-03-23,10:00:00,"Via Piave, Ponticelli, Contrada Bagnoli, Avellino, Campania, 83100, Italia",40.918820000000004,14.78553,3,45.5,1018.5,37.0,88.0,,10.7,9.0,17.5,2.8,2.7,,,
411,2020-03-22,23:00:00,"Liceo Classico J. Stellini, Via Benedetto Cairoli, Borgo Pracchiuso, Casali Osellin, Udine, UTI del Friuli Centrale, Friuli Venezia Giulia, 33100, Italia",46.06611716,13.2406876,17,24.0,1027.8,8.0,17.0,1.3,6.7,4.6,9.6,,,,,
417,2020-03-23,09:00:00,"CAM Casoria Contemporary Art Museum, 63, Via Duca d'Aosta, Arpino, Casoria, Napoli, Campania, 80031, Italia",40.914629999999995,14.29866,26,37.0,1018.0,35.0,86.0,,12.0,5.6,,,2.5,26.4,-2.0,
430,2020-03-23,10:00:00,"Via Italo Calvino, Acerra, Napoli, Campania, 80011, Italia",40.97971,14.401,2,37.0,1018.0,38.0,107.0,2.2,12.0,5.6,,1.9,1.5,,-2.0,
436,2020-03-23,10:00:00,"Via G. Clarizia, Stella, Santa Lucia, Battipaglia, Salerno, Campania, 84091, Italia",40.61107,14.97584,33,1.0,1014.9,20.0,56.0,2.8,0.5,,,,3.4,33.2,,
438,2020-03-23,10:00:00,"Via Ottavio Caiazzo, Municipalità 5, Napoli, Campania, 80129, Italia",40.84936,14.231110000000001,-,51.0,1017.9,31.0,,,9.8,6.2,,,7.2,,,
448,2020-03-23,09:00:00,"Area sosta Sannio camper club, 59, Via Domenico Mustilli, Trescene, Ponticelli, Benevento, Campania, 82100, Italia",41.13146,14.78938,13,45.5,1018.5,13.0,4.0,,10.7,9.0,17.5,,2.4,,,
452,2020-03-23,10:00:00,"Via Giovanni Calzolaio, Acerra, Napoli, Campania, 80011, Italia",40.94108,14.369810000000001,-,37.0,1018.0,31.0,63.0,,12.0,5.6,,6.4,3.0,,-2.0,
459,2020-03-23,10:00:00,"Chiesa Sacra Famiglia, Via Nicola Buonservizi, Fratte, Brignano Inferiore, Salerno, Campania, 84135, Italia",40.69536,14.777510000000001,28,1.0,1014.9,,69.0,,0.5,,,,2.2,28.0,,
464,2020-03-23,10:00:00,"Chiesa di Sant'Antonio da Padova, Corso Pietro Giannone, Caserta, Aldifreda, Caserta, Campania, 81100, Italia",41.07795,14.331220000000002,10,37.0,1018.0,29.0,56.0,,12.0,5.6,,10.0,1.9,,-2.0,
468,2020-03-23,10:00:00,"Europa, Bottiglieri, Salerno, Campania, Italia",40.66142,14.80449,32,1.0,1014.9,27.0,61.0,0.1,0.5,,,4.6,2.6,32.2,,
473,2020-03-23,10:00:00,"Via della Libertà, Maddaloni, Caserta, Campania, 81024, Italia",41.04592,14.37809,-,37.0,1018.0,24.0,69.0,,12.0,5.6,,,3.0,10.6,-2.0,
474,2020-03-23,10:00:00,"Municipalità 3, Napoli, Campania, 80137, Italia",40.863690000000005,14.25451,19,37.0,1018.0,33.0,60.0,,12.0,5.6,,1.0,1.9,18.9,-2.0,
476,2020-03-23,10:00:00,"Istituto Comprensivo ""Aldo Moro"" Plesso Cancello, Via XXI Giugno, San Felice a Cancello, Caserta, Campania, 81027, Italia",40.990520000000004,14.42397,31,37.0,1018.0,26.0,74.0,0.4,12.0,5.6,,1.0,1.7,31.0,-2.0,
479,2020-03-23,09:00:00,"Burger King, Corso Novara, Municipalità 4, Napoli, Campania, 80142, Italia",40.853609999999996,14.27167,54,37.0,1018.0,33.0,54.0,0.6,12.0,5.6,,1.9,4.3,,-2.0,
494,2020-03-23,09:00:00,"SS162dir, Municipalità 6, Napoli, Campania, 80147, Italia",40.86427,14.341079999999998,80,37.0,1018.0,36.0,80.0,2.8,12.0,5.6,,4.6,6.2,,-2.0,
505,2020-03-23,11:00:00,"SP163, Sant'Agata Irpina, Solofra, Avellino, Campania, 83025, Italia",40.83555,14.824589999999999,6,1.0,1015.0,26.0,59.0,0.6,0.5,,,5.5,1.3,,,
506,2020-03-23,10:00:00,"Via del Carmine, Fratte, Brignano Inferiore, Salerno, Campania, 84126, Italia",40.683890000000005,14.769720000000001,20,1.0,1015.0,14.0,20.0,,0.5,,,0.2,2.6,,,
511,2020-03-22,23:00:00,"Via Verdi, San Pasquale, Cassino, Frosinone, Lazio, Italia",41.4907889,13.833377599999999,107,25.0,1027.0,47.0,107.0,0.3,15.0,10.5,14.5,0.1,11.0,19.1,,
514,2020-03-22,23:00:00,"iperoil, Via Cipro, Balduina, Quartiere XIV Trionfale, Roma, Roma Capitale, Lazio, 00165, Italia",41.9071831,12.446687599999999,76,38.0,1015.3,27.0,76.0,0.3,12.2,11.5,22.0,0.1,12.4,25.6,,
518,2020-03-23,11:00:00,"Scuola Media Statale Francesco Solimena, Via Francesco Nola, Casale del Pozzo, Nocera Inferiore, Salerno, Campania, 84014, Italia",40.7404,14.64345,3,55.3,1016.6,37.0,63.0,2.8,7.2,12.6,25.6,1.9,2.4,,,
520,2020-03-22,23:00:00,"25/11, Via del Ponticello, Sottoservola, Servola-Chiarbola-Valmaura-Borgo San Sergio, Trieste / Trst, UTI Giuliana / Julijska MTU, Friuli Venezia Giulia, 34146, Italia",45.62062,13.783760999999998,30,14.0,1027.0,9.0,30.0,1.1,8.3,12.0,16.0,,,,,
523,2020-03-22,23:00:00,"Farmacia, 5, Piazza Benedetto Cairoli, Rione VII Regola, Municipio Roma I, Roma, Roma Capitale, Lazio, 00186, Italia",41.8932669,12.4753855,53,38.0,1015.3,31.0,53.0,,12.2,11.5,22.0,,12.8,23.2,,
524,2020-03-22,23:00:00,"Via Guglielmo Marconi, Sant'Agata, Ferentino, Frosinone, Lazio, 03013, Italia",41.695678799999996,13.2577285,109,57.0,1006.7,44.0,109.0,0.7,8.8,1.0,5.0,0.1,4.2,26.9,,
527,2020-03-23,11:00:00,"Via della Salute, Portici, Napoli, Campania, 80055, Italia",40.81588,14.34927,32,40.0,1018.0,23.0,67.0,,12.0,5.6,,,2.7,31.5,-1.0,
531,2020-03-22,23:00:00,"Isidoro e Maria - Pizzeria Friggitoria, Viale Roma, La Pietrara, Le Muratelle, Guidonia Montecelio, Roma Capitale, Lazio, 00010, Italia",41.9939694,12.7245045,78,33.0,1015.1,30.0,78.0,0.4,12.7,,,,9.2,24.8,,
536,2020-03-23,11:00:00,"Stadio Ciro Vigorito, Rotonda degli Atleti, Trappeto, Libertà, Benevento, Campania, 82100, Italia",41.11575,14.779979999999998,33,46.2,1018.6,32.0,55.0,,10.9,9.7,18.3,,1.5,33.1,,
542,2020-03-23,11:00:00,"Via Filippo Brunelleschi, Caserta, Casolla, Caserta, Campania, 81100, Italia",41.08444,14.34472,43,40.0,1018.0,17.0,43.0,,12.0,5.6,,,2.0,34.2,-1.0,
544,2020-03-23,10:00:00,"Vico I Gagliardi, Municipalità 3, Napoli, Campania, 80137, Italia",40.85419,14.25133,55,49.5,1017.9,29.0,55.0,,10.7,6.1,,2.8,4.1,,,
549,2020-03-22,23:00:00,"Via Cassia, Chiusarelle, Acquapendente, Viterbo, Lazio, 01021, Italia",42.7477229,11.8630202,57,60.0,1022.1,21.0,57.0,0.6,6.1,18.0,32.3,0.1,2.3,29.7,,
550,2020-03-23,11:00:00,"Via Appia, San Vitaliano, Napoli, Campania, 80023, Italia",40.92431,14.481329999999998,36,46.2,1018.6,32.0,58.0,3.2,10.9,9.7,18.3,,2.4,36.1,,
553,2020-03-22,23:00:00,"Casanova Madonna della Strada, Leonessa, Rieti, Lazio, Italia",42.5660721,12.962444999999999,61,62.0,1015.0,20.0,61.0,0.6,-6.0,2.5,13.8,0.1,2.8,38.6,-12.0,
555,2020-03-22,23:00:00,"Via Danimarca, Colle Laghetto, Guidonia Montecelio, Roma Capitale, Lazio, 00012, Italia",41.96440629999999,12.6684397,76,34.0,1017.1,30.0,76.0,0.3,12.2,9.0,20.0,,9.6,21.2,,
558,2020-03-21,23:00:00,"7, Piazzale Antonio Rosmini, Città Nuova-Barriera Nuova-San Vito-Città Vecchia, Trieste / Trst, UTI Giuliana / Julijska MTU, Friuli Venezia Giulia, 34143, Italia",45.640485999999996,13.766081,72,27.0,1027.6,26.0,72.0,0.7,8.2,2.5,,,,,-9.7,99.6
562,2020-03-22,23:00:00,"Piazza Marconi, Regina Pacis, Rieti, Lazio, Italia",42.404509000000004,12.8567281,61,62.0,1015.0,19.0,61.0,0.4,-6.0,2.5,13.8,0.1,1.4,30.1,-12.0,
565,2020-03-22,23:00:00,"Scuola di equitazione, Viale Alexander Dubcek, Quartiere II Parioli, Roma, Roma Capitale, Lazio, 00199, Italia",41.9328321,12.501247300000001,82,36.8,1015.2,30.0,82.0,0.3,12.2,11.1,20.3,0.1,11.0,23.2,,
573,2020-03-23,10:00:00,"Via Piave, Ponticelli, Contrada Bagnoli, Avellino, Campania, 83100, Italia",40.918820000000004,14.78553,3,46.2,1018.6,37.0,88.0,,10.9,9.7,18.3,2.8,2.7,,,
575,2020-03-22,23:00:00,"Porto di Trieste, Androna Sant'Eufemia, Città Nuova-Barriera Nuova-San Vito-Città Vecchia, Trieste / Trst, UTI Giuliana / Julijska MTU, Friuli Venezia Giulia, 34123, Italia",45.62420762,13.78026035,25,14.0,1027.0,8.0,25.0,1.1,8.3,12.0,16.0,,,,,
577,2020-03-22,23:00:00,"Libera Università Internazionale degli Studi Sociali (LUISS) Guido Carli, Via Panama, Municipio Roma II, Roma, Roma Capitale, Lazio, 00197, Italia",41.9248746,12.4934413,82,38.0,1015.3,34.0,82.0,0.3,12.2,11.5,22.0,0.1,4.2,23.2,,
583,2020-03-22,23:00:00,"Via di Villa Guglielmi, Isola Sacra, Fiumicino, Roma Capitale, Lazio, 00121, Italia",41.7702662,12.236676800000001,85,37.5,1018.5,26.0,85.0,0.6,11.5,9.2,,0.1,11.9,27.7,-2.5,
584,2020-03-23,11:00:00,"CAM Casoria Contemporary Art Museum, 63, Via Duca d'Aosta, Arpino, Casoria, Napoli, Campania, 80031, Italia",40.914629999999995,14.29866,29,40.0,1018.0,35.0,86.0,,12.0,5.6,,,2.5,28.6,-1.0,
597,2020-03-23,11:00:00,"Via Italo Calvino, Acerra, Napoli, Campania, 80011, Italia",40.97971,14.401,2,40.0,1018.0,38.0,107.0,2.3,12.0,5.6,,1.9,1.4,,-1.0,
603,2020-03-23,11:00:00,"Via G. Clarizia, Stella, Santa Lucia, Battipaglia, Salerno, Campania, 84091, Italia",40.61107,14.97584,33,1.0,1015.0,20.0,56.0,2.3,0.5,,,,2.7,32.6,,
605,2020-03-23,11:00:00,"Via Ottavio Caiazzo, Municipalità 5, Napoli, Campania, 80129, Italia",40.84936,14.231110000000001,-,49.6,1017.9,31.0,,,10.7,6.0,,,5.3,,,
608,2020-03-22,23:00:00,"Via Latina, Colleferro Scalo, Colleferro, Roma Capitale, Lazio, 00034, Italia",41.7272528,13.0037837,107,34.5,1015.8,43.0,107.0,0.2,13.3,6.0,19.5,0.1,7.8,26.0,,
610,2020-03-22,23:00:00,"Via Limosano, Zona VI Settecamini, Roma, Roma Capitale, Lazio, 00115, Italia",41.936339700000005,12.654414599999999,89,42.8,1015.0,37.0,89.0,0.3,11.7,,,,10.1,24.8,,
615,2020-03-23,10:00:00,"Area sosta Sannio camper club, 59, Via Domenico Mustilli, Trescene, Ponticelli, Benevento, Campania, 82100, Italia",41.13146,14.78938,29,46.2,1018.6,21.0,29.0,,10.9,9.7,18.3,,3.4,,,
618,2020-03-22,23:00:00,"Chiesa Cristiana Evangelica, Via del Pioppeto, Latina, Lazio, 04013, Italia",41.5338395,12.9467669,65,49.0,1014.5,30.0,65.0,0.2,16.6,0.3,2.0,0.1,9.2,30.0,,
619,2020-03-23,11:00:00,"Via Giovanni Calzolaio, Acerra, Napoli, Campania, 80011, Italia",40.94108,14.369810000000001,-,40.0,1018.0,31.0,63.0,,12.0,5.6,,6.4,3.0,,-1.0,
623,2020-03-22,23:00:00,"Piazza Giuseppe Verdi, Via Guglielmo Marconi, Centro Giovanni XXIII, Viterbo, Lazio, 01100, Italia",42.4206766,12.107669,53,40.4,1020.2,20.0,53.0,0.5,6.1,6.6,10.6,0.1,1.9,30.9,,
626,2020-03-23,11:00:00,"Chiesa Sacra Famiglia, Via Nicola Buonservizi, Fratte, Brignano Inferiore, Salerno, Campania, 84135, Italia",40.69536,14.777510000000001,28,1.0,1015.0,,69.0,,0.5,,,,2.1,28.1,,
631,2020-03-23,11:00:00,"Chiesa di Sant'Antonio da Padova, Corso Pietro Giannone, Caserta, Aldifreda, Caserta, Campania, 81100, Italia",41.07795,14.331220000000002,32,40.0,1018.0,29.0,56.0,,12.0,5.6,,31.7,1.5,,-1.0,
634,2020-03-22,23:00:00,"Monumento ai tre Martiri Toscani, Viale Giuseppe Mazzini, Centro Storico, Frosinone, Lazio, 03100, Italia",41.63729,13.35094,95,53.5,1006.7,42.0,95.0,0.6,9.1,1.0,3.5,0.1,6.9,29.7,,
635,2020-03-23,11:00:00,"Europa, Bottiglieri, Salerno, Campania, Italia",40.66142,14.80449,32,1.0,1015.0,27.0,61.0,0.1,0.5,,,5.5,2.2,32.1,,
636,2020-03-22,23:00:00,"Via Valentino Cigliutti, Municipio Roma XII, Roma, Roma Capitale, Lazio, Italia",41.883706,12.3337009,91,38.0,1015.3,71.0,91.0,0.6,12.2,11.5,22.0,0.1,8.3,19.5,,
640,2020-03-23,11:00:00,"Via della Libertà, Maddaloni, Caserta, Campania, 81024, Italia",41.04592,14.37809,-,40.0,1018.0,24.0,69.0,,12.0,5.6,,,2.6,10.6,-1.0,
641,2020-03-23,11:00:00,"Municipalità 3, Napoli, Campania, 80137, Italia",40.863690000000005,14.25451,20,40.0,1018.0,33.0,60.0,,12.0,5.6,,1.0,0.8,20.1,-1.0,
643,2020-03-23,11:00:00,"Istituto Comprensivo ""Aldo Moro"" Plesso Cancello, Via XXI Giugno, San Felice a Cancello, Caserta, Campania, 81027, Italia",40.990520000000004,14.42397,31,40.0,1018.0,26.0,74.0,0.2,12.0,5.6,,1.0,1.8,31.4,-1.0,
646,2020-03-23,10:00:00,"Burger King, Corso Novara, Municipalità 4, Napoli, Campania, 80142, Italia",40.853609999999996,14.27167,37,40.0,1018.0,27.0,37.0,0.5,12.0,5.6,,1.9,3.0,,-1.0,
661,2020-03-23,10:00:00,"SS162dir, Municipalità 6, Napoli, Campania, 80147, Italia",40.86427,14.341079999999998,92,40.0,1018.0,44.0,92.0,1.9,12.0,5.6,,4.6,5.2,,-1.0,
740,2020-03-23,10:00:00,"Via Piave, Ponticelli, Contrada Bagnoli, Avellino, Campania, 83100, Italia",40.918820000000004,14.78553,3,46.2,1018.6,37.0,88.0,,10.9,9.8,18.8,2.8,2.7,,,
772,2020-03-23,11:00:00,"Via Ottavio Caiazzo, Municipalità 5, Napoli, Campania, 80129, Italia",40.84936,14.231110000000001,-,49.3,1017.9,31.0,,,10.8,6.3,,,5.3,,,
835,2020-03-22,23:00:00,"88, Via Duca d'Aosta, Sant'Andrea / Štandrež, Gorizia, UTI Collio - Alto Isonzo, Friuli Venezia Giulia, 34170, Italia",45.93701316,13.61633301,34,23.5,1026.8,8.0,34.0,1.3,8.6,4.0,11.0,,,,,
839,2020-03-23,11:00:00,"SP163, Sant'Agata Irpina, Solofra, Avellino, Campania, 83025, Italia",40.83555,14.824589999999999,6,1.0,1014.9,26.0,59.0,0.6,0.5,,,5.5,1.3,,,
840,2020-03-23,10:00:00,"Via del Carmine, Fratte, Brignano Inferiore, Salerno, Campania, 84126, Italia",40.683890000000005,14.769720000000001,20,1.0,1014.9,14.0,20.0,,0.5,,,0.2,2.6,,,
852,2020-03-23,11:00:00,"Scuola Media Statale Francesco Solimena, Via Francesco Nola, Casale del Pozzo, Nocera Inferiore, Salerno, Campania, 84014, Italia",40.7404,14.64345,3,56.0,1016.9,37.0,63.0,2.8,7.5,9.5,19.0,1.9,2.4,,,
870,2020-03-23,11:00:00,"Stadio Ciro Vigorito, Rotonda degli Atleti, Trappeto, Libertà, Benevento, Campania, 82100, Italia",41.11575,14.779979999999998,33,45.5,1018.7,32.0,55.0,,10.9,9.9,19.0,,1.5,33.1,,
876,2020-03-23,11:00:00,"Via Filippo Brunelleschi, Caserta, Casolla, Caserta, Campania, 81100, Italia",41.08444,14.34472,43,40.0,1018.0,17.0,43.0,,12.0,5.6,10.8,,2.0,34.2,-1.0,
884,2020-03-23,11:00:00,"Via Appia, San Vitaliano, Napoli, Campania, 80023, Italia",40.92431,14.481329999999998,36,45.5,1018.7,32.0,58.0,3.2,10.9,9.9,19.0,,2.4,36.1,,
907,2020-03-23,10:00:00,"Via Piave, Ponticelli, Contrada Bagnoli, Avellino, Campania, 83100, Italia",40.918820000000004,14.78553,3,45.5,1018.7,37.0,88.0,,10.9,10.0,19.0,2.8,2.7,,,
918,2020-03-23,11:00:00,"CAM Casoria Contemporary Art Museum, 63, Via Duca d'Aosta, Arpino, Casoria, Napoli, Campania, 80031, Italia",40.914629999999995,14.29866,29,40.0,1018.0,35.0,86.0,,12.0,5.6,10.8,,2.5,28.6,-1.0,
931,2020-03-23,11:00:00,"Via Italo Calvino, Acerra, Napoli, Campania, 80011, Italia",40.97971,14.401,2,40.0,1018.0,38.0,107.0,2.3,12.0,5.6,10.8,1.9,1.4,,-1.0,
937,2020-03-23,11:00:00,"Via G. Clarizia, Stella, Santa Lucia, Battipaglia, Salerno, Campania, 84091, Italia",40.61107,14.97584,33,1.0,1014.9,20.0,56.0,2.3,0.5,,,,2.7,32.6,,
949,2020-03-23,10:00:00,"Area sosta Sannio camper club, 59, Via Domenico Mustilli, Trescene, Ponticelli, Benevento, Campania, 82100, Italia",41.13146,14.78938,29,45.3,1018.7,21.0,29.0,,11.0,9.6,19.0,,3.4,,,
953,2020-03-23,11:00:00,"Via Giovanni Calzolaio, Acerra, Napoli, Campania, 80011, Italia",40.94108,14.369810000000001,-,40.0,1018.0,31.0,63.0,,12.0,5.6,10.8,6.4,3.0,,-1.0,
960,2020-03-23,11:00:00,"Chiesa Sacra Famiglia, Via Nicola Buonservizi, Fratte, Brignano Inferiore, Salerno, Campania, 84135, Italia",40.69536,14.777510000000001,28,1.0,1014.9,,69.0,,0.5,,,,2.1,28.1,,
965,2020-03-23,11:00:00,"Chiesa di Sant'Antonio da Padova, Corso Pietro Giannone, Caserta, Aldifreda, Caserta, Campania, 81100, Italia",41.07795,14.331220000000002,32,40.0,1018.0,29.0,56.0,,12.0,5.6,10.8,31.7,1.5,,-1.0,
975,2020-03-23,11:00:00,"Municipalità 3, Napoli, Campania, 80137, Italia",40.863690000000005,14.25451,20,40.0,1018.0,33.0,60.0,,12.0,5.6,10.8,1.0,0.8,20.1,-1.0,
977,2020-03-23,11:00:00,"Istituto Comprensivo ""Aldo Moro"" Plesso Cancello, Via XXI Giugno, San Felice a Cancello, Caserta, Campania, 81027, Italia",40.990520000000004,14.42397,31,40.0,1018.0,26.0,74.0,0.2,12.0,5.6,10.8,1.0,1.8,31.4,-1.0,
980,2020-03-23,10:00:00,"Burger King, Corso Novara, Municipalità 4, Napoli, Campania, 80142, Italia",40.853609999999996,14.27167,37,40.0,1018.0,27.0,37.0,0.5,12.0,5.6,10.8,1.9,3.0,,-1.0,
995,2020-03-23,10:00:00,"SS162dir, Municipalità 6, Napoli, Campania, 80147, Italia",40.86427,14.341079999999998,92,40.0,1018.0,44.0,92.0,1.9,12.0,5.6,10.8,4.6,5.2,,-1.0,
1006,2020-03-23,12:00:00,"SP163, Sant'Agata Irpina, Solofra, Avellino, Campania, 83025, Italia",40.83555,14.824589999999999,6,1.0,1014.9,26.0,59.0,0.8,0.5,,,6.4,1.2,,,
1007,2020-03-23,11:00:00,"Via del Carmine, Fratte, Brignano Inferiore, Salerno, Campania, 84126, Italia",40.683890000000005,14.769720000000001,49,1.0,1014.9,17.0,49.0,,0.5,,,0.2,2.7,,,
1012,2020-03-22,23:00:00,"Via Verdi, San Pasquale, Cassino, Frosinone, Lazio, Italia",41.4907889,13.833377599999999,107,22.0,1026.7,47.0,107.0,0.3,15.0,15.0,21.0,0.1,5.5,19.1,,
1015,2020-03-22,23:00:00,"iperoil, Via Cipro, Balduina, Quartiere XIV Trionfale, Roma, Roma Capitale, Lazio, 00165, Italia",41.9071831,12.446687599999999,76,31.8,1015.0,27.0,76.0,0.3,12.7,9.5,20.5,0.1,6.9,25.6,,
1019,2020-03-23,12:00:00,"Scuola Media Statale Francesco Solimena, Via Francesco Nola, Casale del Pozzo, Nocera Inferiore, Salerno, Campania, 84014, Italia",40.7404,14.64345,3,56.0,1016.9,37.0,63.0,2.8,7.5,9.5,19.0,1.9,2.3,,,
1024,2020-03-22,23:00:00,"Farmacia, 5, Piazza Benedetto Cairoli, Rione VII Regola, Municipio Roma I, Roma, Roma Capitale, Lazio, 00186, Italia",41.8932669,12.4753855,53,31.8,1015.0,31.0,53.0,,12.7,9.5,20.5,,8.3,23.2,,
1025,2020-03-22,23:00:00,"Via Guglielmo Marconi, Sant'Agata, Ferentino, Frosinone, Lazio, 03013, Italia",41.695678799999996,13.2577285,109,45.7,1006.4,44.0,109.0,0.6,10.4,1.0,5.0,0.1,3.2,29.7,,
1028,2020-03-23,12:00:00,"Via della Salute, Portici, Napoli, Campania, 80055, Italia",40.81588,14.34927,32,40.0,1018.0,23.0,67.0,,13.0,6.1,10.8,,2.2,31.8,0.0,
1032,2020-03-22,23:00:00,"Isidoro e Maria - Pizzeria Friggitoria, Viale Roma, La Pietrara, Le Muratelle, Guidonia Montecelio, Roma Capitale, Lazio, 00010, Italia",41.9939694,12.7245045,78,29.6,1015.0,30.0,78.0,0.4,13.1,,,,6.4,24.8,,
1037,2020-03-23,12:00:00,"Stadio Ciro Vigorito, Rotonda degli Atleti, Trappeto, Libertà, Benevento, Campania, 82100, Italia",41.11575,14.779979999999998,33,45.5,1018.7,32.0,55.0,,10.9,9.4,18.4,,1.6,33.0,,
1043,2020-03-23,11:00:00,"Via Filippo Brunelleschi, Caserta, Casolla, Caserta, Campania, 81100, Italia",41.08444,14.34472,43,40.0,1018.0,17.0,43.0,,13.0,6.1,10.8,,2.0,34.2,0.0,
1045,2020-03-23,10:00:00,"Vico I Gagliardi, Municipalità 3, Napoli, Campania, 80137, Italia",40.85419,14.25133,55,47.6,1017.9,29.0,55.0,,11.5,5.3,,2.8,4.1,,,
1050,2020-03-22,23:00:00,"Via Cassia, Chiusarelle, Acquapendente, Viterbo, Lazio, 01021, Italia",42.7477229,11.8630202,57,55.5,1022.0,21.0,57.0,0.5,6.3,16.6,29.8,0.1,1.9,29.7,,
1051,2020-03-23,12:00:00,"Via Appia, San Vitaliano, Napoli, Campania, 80023, Italia",40.92431,14.481329999999998,36,45.5,1018.7,32.0,58.0,3.4,10.9,9.4,18.4,,2.5,36.2,,
1054,2020-03-22,23:00:00,"Casanova Madonna della Strada, Leonessa, Rieti, Lazio, Italia",42.5660721,12.962444999999999,61,45.0,1015.0,20.0,61.0,0.4,-5.0,5.6,13.8,0.1,1.4,38.6,-15.0,
1056,2020-03-22,23:00:00,"Via Danimarca, Colle Laghetto, Guidonia Montecelio, Roma Capitale, Lazio, 00012, Italia",41.96440629999999,12.6684397,76,33.2,1016.9,30.0,76.0,0.4,10.5,12.2,25.5,,6.4,24.8,,
1063,2020-03-22,23:00:00,"Piazza Marconi, Regina Pacis, Rieti, Lazio, Italia",42.404509000000004,12.8567281,61,45.0,1015.0,19.0,61.0,0.4,-5.0,5.6,13.8,0.1,0.5,30.1,-15.0,
1066,2020-03-22,23:00:00,"Scuola di equitazione, Viale Alexander Dubcek, Quartiere II Parioli, Roma, Roma Capitale, Lazio, 00199, Italia",41.9328321,12.501247300000001,82,31.8,1015.0,30.0,82.0,0.3,12.7,9.5,20.5,0.1,8.3,23.2,,
1074,2020-03-23,10:00:00,"Via Piave, Ponticelli, Contrada Bagnoli, Avellino, Campania, 83100, Italia",40.918820000000004,14.78553,3,45.5,1018.7,37.0,88.0,,10.9,9.4,18.4,2.8,2.7,,,
1078,2020-03-22,23:00:00,"Libera Università Internazionale degli Studi Sociali (LUISS) Guido Carli, Via Panama, Municipio Roma II, Roma, Roma Capitale, Lazio, 00197, Italia",41.9248746,12.4934413,82,31.8,1015.0,34.0,82.0,0.3,12.7,9.5,20.5,0.1,4.6,23.2,,
1084,2020-03-22,23:00:00,"Via di Villa Guglielmi, Isola Sacra, Fiumicino, Roma Capitale, Lazio, 00121, Italia",41.7702662,12.236676800000001,85,30.0,1019.0,26.0,85.0,0.6,13.0,8.2,,0.1,8.3,27.7,-4.0,
1085,2020-03-23,12:00:00,"CAM Casoria Contemporary Art Museum, 63, Via Duca d'Aosta, Arpino, Casoria, Napoli, Campania, 80031, Italia",40.914629999999995,14.29866,29,40.0,1018.0,35.0,86.0,,13.0,6.1,10.8,,1.9,29.0,0.0,
1098,2020-03-23,12:00:00,"Via Italo Calvino, Acerra, Napoli, Campania, 80011, Italia",40.97971,14.401,2,40.0,1018.0,38.0,107.0,2.2,13.0,6.1,10.8,1.9,1.3,,0.0,
1104,2020-03-23,12:00:00,"Via G. Clarizia, Stella, Santa Lucia, Battipaglia, Salerno, Campania, 84091, Italia",40.61107,14.97584,33,1.0,1014.9,20.0,56.0,2.8,0.5,,,,3.0,32.5,,
1106,2020-03-23,12:00:00,"Via Ottavio Caiazzo, Municipalità 5, Napoli, Campania, 80129, Italia",40.84936,14.231110000000001,-,47.6,1017.9,31.0,,,11.5,5.3,,,4.3,,,
1107,2020-03-22,23:00:00,"Palestra Comunale, Via Isonzo, Monfalcone, UTI Carso Isonzo Adriatico / MTU Kras Soča Jadran, Friuli Venezia Giulia, 34074, Italia",45.805178000000005,13.522051999999999,25,20.0,1027.5,6.0,25.0,0.5,9.0,7.2,12.3,,,,-12.5,
1109,2020-03-22,23:00:00,"Via Latina, Colleferro Scalo, Colleferro, Roma Capitale, Lazio, 00034, Italia",41.7272528,13.0037837,107,30.0,1015.6,43.0,107.0,0.2,13.8,7.3,19.0,0.1,6.4,26.0,,
1111,2020-03-22,23:00:00,"Via Limosano, Zona VI Settecamini, Roma, Roma Capitale, Lazio, 00115, Italia",41.936339700000005,12.654414599999999,89,29.6,1015.0,37.0,89.0,0.4,13.1,,,,7.8,24.8,,
1114,2020-03-22,23:00:00,"1, Via Eraclea, Fossalon di Grado, Grado, UTI Carso Isonzo Adriatico / MTU Kras Soča Jadran, Friuli Venezia Giulia, 34073, Italia",45.731621999999994,13.486355999999999,25,18.0,1027.0,9.0,25.0,1.2,9.0,5.6,12.3,,,,-14.0,
1116,2020-03-23,11:00:00,"Area sosta Sannio camper club, 59, Via Domenico Mustilli, Trescene, Ponticelli, Benevento, Campania, 82100, Italia",41.13146,14.78938,19,45.5,1018.7,19.0,17.0,,10.9,9.4,18.4,,2.5,,,
1119,2020-03-22,23:00:00,"Chiesa Cristiana Evangelica, Via del Pioppeto, Latina, Lazio, 04013, Italia",41.5338395,12.9467669,65,35.0,1014.2,30.0,65.0,0.2,16.6,0.3,2.0,0.1,4.6,30.0,,
1120,2020-03-23,11:00:00,"Via Giovanni Calzolaio, Acerra, Napoli, Campania, 80011, Italia",40.94108,14.369810000000001,-,40.0,1018.0,31.0,63.0,,13.0,6.1,10.8,6.4,3.0,,0.0,
1127,2020-03-23,12:00:00,"Chiesa Sacra Famiglia, Via Nicola Buonservizi, Fratte, Brignano Inferiore, Salerno, Campania, 84135, Italia",40.69536,14.777510000000001,28,1.0,1014.9,,69.0,,0.5,,,,2.2,28.1,,
1132,2020-03-23,11:00:00,"Chiesa di Sant'Antonio da Padova, Corso Pietro Giannone, Caserta, Aldifreda, Caserta, Campania, 81100, Italia",41.07795,14.331220000000002,32,40.0,1018.0,29.0,56.0,,13.0,6.1,10.8,31.7,1.2,,0.0,
1135,2020-03-22,23:00:00,"Monumento ai tre Martiri Toscani, Viale Giuseppe Mazzini, Centro Storico, Frosinone, Lazio, 03100, Italia",41.63729,13.35094,95,45.7,1006.4,42.0,95.0,0.6,10.4,1.0,5.0,0.1,3.7,29.7,,
1136,2020-03-23,12:00:00,"Europa, Bottiglieri, Salerno, Campania, Italia",40.66142,14.80449,33,1.0,1014.9,27.0,61.0,0.1,0.5,,,5.5,1.6,33.1,,
1141,2020-03-23,11:00:00,"Via della Libertà, Maddaloni, Caserta, Campania, 81024, Italia",41.04592,14.37809,-,40.0,1018.0,24.0,69.0,,13.0,6.1,10.8,,2.6,10.6,0.0,
1142,2020-03-23,12:00:00,"Municipalità 3, Napoli, Campania, 80137, Italia",40.863690000000005,14.25451,21,40.0,1018.0,33.0,60.0,,13.0,6.1,10.8,1.0,0.6,20.5,0.0,
1144,2020-03-23,12:00:00,"Istituto Comprensivo ""Aldo Moro"" Plesso Cancello, Via XXI Giugno, San Felice a Cancello, Caserta, Campania, 81027, Italia",40.990520000000004,14.42397,31,40.0,1018.0,26.0,74.0,0.4,13.0,6.1,10.8,1.0,1.9,30.9,0.0,
1147,2020-03-23,11:00:00,"Burger King, Corso Novara, Municipalità 4, Napoli, Campania, 80142, Italia",40.853609999999996,14.27167,71,40.0,1018.0,38.0,71.0,0.4,13.0,6.1,10.8,1.9,3.2,,0.0,
1162,2020-03-23,11:00:00,"SS162dir, Municipalità 6, Napoli, Campania, 80147, Italia",40.86427,14.341079999999998,72,40.0,1018.0,38.0,72.0,1.9,13.0,6.1,10.8,4.6,5.2,,0.0,
1169,2020-03-22,23:00:00,,45.93701316,13.61633301,34,23.5,1026.8,8.0,34.0,1.3,8.6,4.0,11.0,,,,,
1170,2020-03-22,23:00:00,,44.229397,12.089160000000001,50,42.0,1027.4,20.0,50.0,,6.9,0.5,11.0,0.1,5.5,29.3,,
1171,2020-03-21,23:00:00,,45.81504217,9.06697886,59,50.0,1013.2,22.0,59.0,0.6,4.4,5.0,9.0,0.1,14.2,47.6,,
1172,2020-03-22,23:00:00,,43.784169388287,11.286879604208,53,35.6,1021.1,16.0,53.0,0.8,7.7,,,0.1,8.3,,-6.6,
1173,2020-03-23,12:00:00,,40.83555,14.824589999999999,6,1.0,1014.8,26.0,59.0,0.8,0.5,,,6.4,1.2,,,
1174,2020-03-23,11:00:00,,40.683890000000005,14.769720000000001,49,1.0,1014.8,17.0,49.0,,0.5,,,0.2,2.7,,,
1175,2020-03-19,23:00:00,,45.159718,8.226189100000001,95,87.5,1014.3,,95.0,,2.7,0.2,,0.1,,,,
1176,2020-03-21,23:00:00,,45.432177200000005,7.234306699999999,38,,,,38.0,,0.0,4.0,,,,,,
1177,2020-03-21,23:00:00,,45.104332,7.6964231,70,61.2,1022.7,,70.0,,6.9,4.7,15.2,0.1,,,,
1178,2020-03-21,23:00:00,,44.283857,12.332249000000001,39,71.0,1018.0,30.0,102.0,5.1,12.0,6.1,,0.1,3.7,39.0,7.0,
1179,2020-03-22,23:00:00,,41.4907889,13.833377599999999,107,24.0,1026.6,40.0,107.0,0.3,15.0,14.0,21.0,0.1,5.5,19.1,,
1180,2020-03-21,23:00:00,,44.651569,10.907312,61,85.2,1014.6,26.0,61.0,,9.0,5.2,9.0,,14.2,39.0,,
1181,2020-03-21,23:00:00,,44.285612,11.873396000000001,76,61.6,1016.9,30.0,76.0,,12.9,2.6,4.3,,6.0,38.6,,
1182,2020-03-22,23:00:00,,41.9071831,12.446687599999999,76,31.5,1015.0,30.0,76.0,0.3,12.5,10.0,21.1,0.1,6.9,25.6,,
1183,2020-03-21,23:00:00,,46.16785664,9.87921169,50,53.0,1024.7,13.0,50.0,,8.3,4.0,12.0,,6.0,41.1,,
1184,2020-03-21,23:00:00,,44.734728000000004,9.366928,45,96.5,1014.6,8.0,85.0,,3.8,2.2,4.7,0.1,6.9,44.7,,
1185,2020-03-22,23:00:00,,44.654232025,11.624819755999999,46,35.7,1029.0,16.0,46.0,,4.3,1.5,,0.1,3.7,32.1,-9.6,
1186,2020-03-23,12:00:00,,40.7404,14.64345,3,54.0,1016.7,37.0,63.0,2.8,7.7,9.0,23.0,1.9,2.3,,,
1187,2020-03-21,23:00:00,,45.691044,9.64366225,74,50.6,1027.7,25.0,74.0,,4.4,0.2,,0.1,9.2,45.5,,
1188,2020-03-22,23:00:00,,45.62062,13.783760999999998,30,14.0,1027.0,9.0,30.0,1.1,8.3,12.0,16.0,,,,,
1189,2020-03-21,23:00:00,,44.516242,10.733905,70,85.2,1014.6,23.0,70.0,,9.0,5.2,9.0,,13.8,43.1,,
1190,2020-03-21,23:00:00,,45.91279097,9.49754261,55,69.8,1025.1,20.0,55.0,,0.1,2.0,5.1,,4.6,49.6,,
1191,2020-03-22,23:00:00,,41.8932669,12.4753855,53,31.5,1015.0,35.0,53.0,,12.5,10.0,21.1,,8.3,23.2,,
1192,2020-03-22,23:00:00,,41.695678799999996,13.2577285,109,44.1,1006.4,41.0,109.0,0.6,10.5,1.0,5.5,0.1,3.2,29.7,,
1193,2020-03-21,23:00:00,,45.048840000000006,9.693265,17,83.0,1013.1,17.0,78.0,,9.4,,,0.1,14.7,36.2,,
1194,2020-03-22,23:00:00,,45.962624,12.655944,42,34.5,1029.5,10.0,42.0,,6.5,1.5,5.2,,,,,
1195,2020-03-23,12:00:00,,40.81588,14.34927,32,40.0,1018.0,23.0,67.0,,13.0,6.1,10.8,,2.2,31.8,0.0,
1196,2020-03-21,23:00:00,,45.031427799999996,7.651743799999999,76,61.2,1022.7,,76.0,,6.9,4.7,15.2,,,,,
1197,2020-03-21,23:00:00,,45.6989656,8.460604400000001,61,62.6,1025.0,,61.0,,4.7,1.3,7.1,0.1,,,,
1198,2020-03-21,23:00:00,,45.04008561,8.91415717,74,3.0,,,74.0,,10.7,10.7,13.2,0.1,7.8,41.5,,
1199,2020-03-22,23:00:00,,41.9939694,12.7245045,78,33.0,1014.6,28.0,78.0,0.4,11.6,,,,6.4,24.8,,
1200,2020-03-21,23:00:00,,45.86375372,9.39995481,61,69.8,1025.1,20.0,61.0,,0.1,2.0,5.1,,10.1,43.9,,
1201,2020-03-22,23:00:00,,43.517506738783,10.321031260215,53,26.0,1024.0,16.0,53.0,,11.0,10.8,15.4,0.1,8.3,28.9,-7.5,
1202,2020-03-21,23:00:00,,44.733011,11.299659,42,66.2,1016.7,29.0,93.0,,11.1,10.9,2.0,0.1,13.8,41.5,,
1203,2020-03-22,23:00:00,,43.470437486833,11.141284549758,57,59.0,1019.0,17.0,57.0,,4.4,3.0,3.0,,6.0,,,
1204,2020-03-23,12:00:00,,41.11575,14.779979999999998,33,42.6,1018.3,32.0,55.0,,11.6,7.5,15.8,,1.6,33.0,,
1205,2020-03-21,23:00:00,,45.8169745,8.82024911,76,50.0,1030.9,21.0,76.0,,3.3,7.0,11.0,0.1,22.9,,,
1206,2020-03-21,23:00:00,,45.01688067,11.07609728,93,33.0,1027.6,41.0,93.0,2.6,8.8,10.0,20.0,0.1,9.2,49.2,,
1207,2020-03-21,23:00:00,,44.9895,10.019200999999999,55,61.5,1016.3,16.0,55.0,5.1,11.6,9.1,15.5,0.1,6.4,38.2,,
1208,2020-03-22,23:00:00,,44.925963,10.371914,55,87.0,1008.7,11.0,55.0,5.1,7.7,,0.1,,3.7,26.4,,
1209,2020-03-21,23:00:00,,44.443746000000004,12.253247,82,77.3,1019.8,33.0,82.0,5.1,10.9,14.3,18.3,0.1,12.8,29.7,,
1210,2020-03-23,12:00:00,,41.08444,14.34472,35,37.6,1011.1,14.0,35.0,,11.8,3.6,,,2.0,35.3,-2.2,
1211,2020-03-21,23:00:00,,44.37031760000001,7.5251893,70,61.3,1018.2,,70.0,,5.5,1.0,3.6,0.1,,,,
1212,2020-03-23,11:00:00,,40.85419,14.25133,45,46.3,1017.6,26.0,45.0,,11.2,4.0,,2.8,3.8,,,
1213,2020-03-21,23:00:00,,45.49822794,9.55624181,82,46.0,1028.5,30.0,82.0,,5.0,2.0,,,10.6,45.5,-5.5,
1214,2020-03-21,23:00:00,,44.542152405,10.819877625,23,85.2,1014.6,23.0,68.0,,9.0,5.2,9.0,,13.3,31.7,,
1215,2020-03-21,23:00:00,,45.15047339,9.93059842,89,34.2,1026.0,30.0,89.0,,7.0,2.7,9.0,,13.3,44.3,,
1216,2020-03-21,23:00:00,,45.87460256,10.17736553,72,55.3,1026.7,22.0,72.0,,5.0,5.0,9.8,,7.4,48.0,,
1217,2020-03-22,23:00:00,,42.7477229,11.8630202,57,54.0,1022.0,18.0,57.0,0.5,6.1,12.0,30.0,0.1,1.9,29.7,,
1218,2020-03-23,12:00:00,,40.92431,14.481329999999998,36,42.5,1018.3,32.0,58.0,3.4,11.6,7.6,16.2,,2.5,36.2,,
1219,2020-03-21,23:00:00,,45.53476819,9.23610903,70,48.0,1027.0,,70.0,,5.5,,,0.1,23.8,,,
1220,2020-03-21,23:00:00,,44.928769,11.178946,102,62.5,1019.6,37.0,102.0,,10.8,16.8,22.6,0.1,9.6,39.8,,
1221,2020-03-22,23:00:00,,42.5660721,12.962444999999999,61,45.0,1015.0,18.0,61.0,0.4,-5.0,5.6,13.8,0.1,1.4,38.6,-15.0,
1222,2020-03-21,23:00:00,,45.30278678,9.49528589,87,49.3,1026.6,35.0,87.0,,6.6,1.5,12.6,,22.9,42.3,,
1223,2020-03-22,23:00:00,,41.96440629999999,12.6684397,76,33.0,1016.6,30.0,76.0,0.4,10.5,12.0,23.0,,6.4,24.8,,
1224,2020-03-21,23:00:00,,44.800377000000005,10.884255,37,65.5,1020.4,28.0,112.0,,11.6,5.0,12.5,,12.8,37.0,,
1225,2020-03-22,23:00:00,,44.215153,12.048160000000001,53,38.0,1027.2,17.0,53.0,,5.5,6.5,10.5,0.1,3.7,29.3,,
1226,2020-03-21,23:00:00,,45.640485999999996,13.766081,72,27.0,1027.6,26.0,72.0,0.7,8.2,2.5,,,,,-9.7,99.6
1227,2020-03-21,23:00:00,,44.85998,11.61,93,51.6,1019.0,30.0,93.0,,11.4,2.0,,0.1,8.3,41.1,,
1228,2020-03-22,23:00:00,,44.890934,10.399611,53,87.0,1008.7,18.0,53.0,5.1,7.7,,0.1,,3.7,32.1,,
1229,2020-03-22,23:00:00,,44.467189000000005,11.416601,42,46.5,1026.0,25.0,42.0,,3.8,5.5,10.5,0.1,4.2,21.6,,
1230,2020-03-22,23:00:00,,42.404509000000004,12.8567281,61,45.0,1015.0,20.0,61.0,0.4,-5.0,5.6,13.8,0.1,0.5,30.1,-15.0,
1231,2020-03-21,23:00:00,,45.030563799999996,7.595250999999999,76,48.2,1026.1,,76.0,,6.8,7.8,13.1,,,,,
1232,2020-03-21,23:00:00,,44.064308167,12.552490234,80,66.0,1018.0,30.0,80.0,,12.0,5.1,,,14.2,36.6,6.0,
1233,2020-03-22,23:00:00,,41.9328321,12.501247300000001,82,31.5,1015.0,31.0,82.0,0.3,12.5,10.0,21.1,0.1,8.3,23.2,,
1234,2020-03-22,23:00:00,,44.658226,10.289367,53,87.0,1008.7,20.0,53.0,,7.7,,0.1,,6.9,28.5,,
1235,2020-03-21,23:00:00,,44.670378,10.9623,82,85.2,1014.6,31.0,82.0,,9.0,5.2,9.0,,11.0,33.3,,
1236,2020-03-22,23:00:00,,44.140440000000005,10.917166,34,58.5,1020.8,21.0,34.0,,-0.2,8.0,17.5,,3.7,17.5,,
1237,2020-03-22,10:00:00,,40.470596,15.298722999999995,11,1.0,1010.5,25.0,70.0,0.1,0.5,,,10.9,2.8,,,
1238,2020-03-22,23:00:00,,43.927406,12.224794000000001,42,50.5,1027.7,10.0,85.0,,1.6,5.5,18.0,,4.2,41.5,,
1239,2020-03-21,23:00:00,,45.69043647,9.48426111,59,57.0,1029.6,21.0,59.0,1.1,3.3,0.5,0.5,0.1,6.9,42.3,,
1240,2020-03-22,23:00:00,,43.838363142651,10.573105456095,82,23.2,1026.0,29.0,82.0,1.4,8.8,22.4,24.4,,9.6,,,
1241,2020-03-23,12:00:00,,40.918820000000004,14.78553,-,42.5,1018.3,37.0,88.0,,11.6,7.8,16.7,2.8,3.7,,,
1242,2020-03-20,23:00:00,,45.14254358,10.04384767,107,34.2,1026.0,52.0,107.0,1.1,7.0,2.7,9.0,0.1,27.5,37.8,,
1243,2020-03-22,23:00:00,,45.62420762,13.78026035,25,14.0,1027.0,8.0,25.0,1.1,8.3,12.0,16.0,,,,,
1244,2020-03-22,23:00:00,,44.792419,10.330985,55,87.0,1008.7,23.0,55.0,,7.7,,0.1,,4.2,26.9,,
1245,2020-03-22,23:00:00,,41.9248746,12.4934413,82,31.5,1015.0,33.0,82.0,0.3,12.5,10.0,21.1,0.1,4.6,23.2,,
1246,2020-03-22,23:00:00,,46.06611716,13.2406876,17,24.0,1027.8,8.0,17.0,1.3,6.7,4.6,9.6,,,,,
1247,2020-03-21,23:00:00,,44.636984999999996,10.905724000000001,27,85.2,1014.6,27.0,93.0,,9.0,5.2,9.0,,17.0,33.3,,
1248,2020-03-22,23:00:00,,43.458591187680994,11.888247347751,55,35.0,,17.0,55.0,,4.4,12.5,26.5,,5.5,,,
1249,2020-03-21,23:00:00,,45.4371054,8.7452213,80,56.7,1026.6,,80.0,,5.9,6.2,13.5,,,,,
1250,2020-03-21,23:00:00,,44.42778396600001,12.186494827,33,75.0,1019.5,33.0,102.0,5.1,11.2,11.5,15.8,0.1,12.4,40.7,,
1251,2020-03-22,23:00:00,,41.7702662,12.236676800000001,85,28.5,1018.5,30.0,85.0,0.6,12.5,8.7,,0.1,8.3,27.7,-5.0,
1252,2020-03-23,12:00:00,,40.914629999999995,14.29866,29,38.5,1018.0,35.0,86.0,,12.5,6.9,10.8,,1.9,29.0,-1.0,
1253,2020-03-21,23:00:00,,45.040214899999995,7.6227648,76,61.2,1022.7,,76.0,,6.9,4.7,15.2,,,,,
1254,2020-03-21,23:00:00,,44.013877,12.420964,99,85.5,1017.6,20.0,99.0,,8.1,2.0,7.7,,6.0,40.7,,
1255,2020-03-21,23:00:00,,45.51933533,9.59201917,65,46.0,1028.5,30.0,65.0,0.6,5.0,2.0,,0.1,16.5,,-5.5,
1256,2020-03-21,23:00:00,,44.873727,10.664777,87,65.5,1020.4,33.0,87.0,,11.6,5.0,12.5,0.1,6.0,39.4,,
1257,2020-03-22,23:00:00,,43.881437296938,10.244316772468,76,23.0,1023.9,26.0,76.0,,12.0,13.3,15.3,,8.3,,,
1258,2020-03-22,23:00:00,,43.913660405481004,11.006226278906,57,23.0,1025.7,17.0,57.0,,7.2,12.0,23.0,,4.2,,,
1259,2020-03-21,23:00:00,,44.052101135,12.575679779000001,35,66.0,1018.0,35.0,91.0,,12.0,5.1,,0.1,12.8,35.4,6.0,
1260,2020-03-22,23:00:00,,44.841275,10.344572,50,87.0,1008.7,12.0,50.0,5.1,7.7,,0.1,,3.7,26.9,,
1261,2020-03-22,23:00:00,,44.921606,10.326172999999999,53,87.0,1008.7,17.0,53.0,5.1,7.7,,0.1,,3.7,26.4,,
1262,2020-03-21,23:00:00,,41.668821,13.675500099999999,1,31.0,1021.4,20.0,61.0,0.7,21.1,8.0,12.0,0.1,6.0,19.1,,
1263,2020-03-21,23:00:00,,45.41277633,10.68336214,127,40.7,1021.1,51.0,127.0,,7.5,1.0,,,12.4,43.1,-5.0,
1264,2020-03-22,23:00:00,,44.215973999999996,12.057502000000001,20,38.0,1027.2,20.0,80.0,,5.5,6.5,10.5,0.1,11.0,40.3,,
1265,2020-03-23,12:00:00,,40.97971,14.401,2,40.0,1018.0,38.0,107.0,2.2,13.0,6.1,10.8,1.9,1.3,,0.0,
1266,2020-03-21,23:00:00,,45.574117,9.263808000000001,70,53.0,1027.1,26.0,70.0,2.1,5.0,3.0,8.0,0.1,23.4,50.0,,
1267,2020-03-21,23:00:00,,45.16057658,10.79557331,104,32.0,1028.3,46.0,104.0,,8.9,7.9,14.2,0.1,12.8,43.1,,
1268,2020-03-21,23:00:00,,44.69955,10.622759,78,65.5,1020.4,25.0,78.0,,11.6,5.0,12.5,0.1,19.2,38.6,,
1269,2020-03-21,23:00:00,,45.69795956,9.40619194,65,56.0,1028.5,26.0,65.0,,4.5,2.2,,0.1,11.5,46.8,,
1270,2020-03-22,23:00:00,,44.141382,12.244744,20,42.0,1027.4,20.0,99.0,,6.9,0.5,11.0,0.1,6.9,38.6,,
1271,2020-03-23,12:00:00,,40.61107,14.97584,33,1.0,1014.8,20.0,56.0,2.8,0.5,,,,3.0,32.5,,
1272,2020-03-21,23:00:00,,43.907219,12.401233,40,85.5,1017.6,28.0,85.0,,8.1,2.0,7.7,,3.7,39.8,,
1273,2020-03-23,12:00:00,,40.84936,14.231110000000001,-,47.6,1017.9,31.0,,,11.5,5.3,,,4.3,,,
1274,2020-03-22,23:00:00,,45.805178000000005,13.522051999999999,25,20.0,1027.5,6.0,25.0,0.5,9.0,7.2,12.3,,,,-12.5,
1275,2020-03-21,23:00:00,,44.540382385,10.792358398,61,85.2,1014.6,25.0,61.0,,9.0,5.2,9.0,,14.7,38.6,,
1276,2020-03-22,23:00:00,,41.7272528,13.0037837,107,31.0,1015.3,41.0,107.0,0.2,13.8,7.0,18.0,0.1,6.4,26.0,,
1277,2020-03-21,23:00:00,,44.689042,10.663591,78,85.2,1014.6,30.0,78.0,,9.0,5.2,9.0,0.1,8.7,38.6,,
1278,2020-03-22,23:00:00,"Via Limosano, Zona VI Settecamini, Roma, Roma Capitale, Lazio, 00115, Italia",41.936339700000005,12.654414599999999,89,33.0,1014.6,31.0,89.0,0.4,11.6,,,,7.8,24.8,,
1279,2020-03-21,23:00:00,,45.05442047100001,9.726859093,72,83.0,1013.1,24.0,72.0,,9.4,,,0.1,14.2,40.3,,
1280,2020-03-21,23:00:00,,45.13195042,10.01574064,85,34.2,1026.0,30.0,85.0,1.6,7.0,2.7,9.0,0.1,14.7,,,
1281,2020-03-22,23:00:00,,45.731621999999994,13.486355999999999,25,18.0,1027.0,9.0,25.0,1.2,9.0,5.6,12.3,,,,-14.0,
1282,2020-03-21,23:00:00,,44.849548,11.562287,82,51.6,1019.0,30.0,82.0,,11.4,2.0,,0.1,10.6,39.4,,
1283,2020-03-23,11:00:00,,41.13146,14.78938,19,42.4,1018.3,19.0,17.0,,11.6,7.6,16.6,,2.5,,,
1284,2020-03-22,23:00:00,,44.483628,11.355035,42,42.5,1029.8,20.0,42.0,,4.4,7.5,16.0,0.1,7.8,21.6,,
1285,2020-03-22,23:00:00,,44.500093,11.286064999999999,50,39.5,1028.5,17.0,50.0,,5.0,7.2,,0.1,4.6,24.4,-7.5,
1286,2020-03-22,23:00:00,,41.5338395,12.9467669,65,34.9,1014.1,22.0,65.0,0.2,16.6,0.3,3.9,0.1,4.6,30.0,,
1287,2020-03-23,11:00:00,,40.94108,14.369810000000001,-,40.0,1018.0,31.0,63.0,,13.0,6.1,10.8,6.4,3.0,,0.0,
1288,2020-03-21,23:00:00,,45.10277464,8.90418742,74,3.0,,24.0,74.0,22.3,10.7,10.7,13.2,,13.8,,,
1289,2020-03-21,23:00:00,,45.30601628,9.48527511,61,49.3,1026.6,31.0,61.0,2.1,6.6,1.5,12.6,0.1,17.4,,,
1290,2020-03-21,23:00:00,,45.54006456,10.22281989,91,35.0,1012.5,34.0,91.0,,6.6,5.0,6.0,0.1,13.3,,,
1291,2020-03-22,23:00:00,,42.4206766,12.107669,53,38.0,1019.0,16.0,53.0,0.5,6.6,6.0,10.0,0.1,1.9,30.9,,
1292,2020-03-22,23:00:00,,44.829145000000004,10.391537,53,87.0,1008.7,16.0,53.0,5.1,7.7,,0.1,,3.7,26.9,,
1293,2020-03-22,23:00:00,,43.770585907976,11.271415330415001,55,35.6,1021.1,17.0,55.0,0.8,7.7,,,0.1,14.7,,-6.6,
1294,2020-03-23,12:00:00,,40.69536,14.777510000000001,28,1.0,1014.9,,69.0,,0.5,,,,2.2,28.1,,
1295,2020-03-22,23:00:00,,44.786636353,10.33647728,16,87.0,1008.7,16.0,72.0,,7.7,,0.1,,5.1,34.2,,
1296,2020-03-22,23:00:00,,43.73635268547,10.400971437911,63,23.0,1023.9,21.0,63.0,,12.0,13.3,15.3,0.1,7.8,,,
1297,2020-03-21,23:00:00,,45.055889,9.747946,70,83.0,1013.1,25.0,70.0,,9.4,,,0.1,19.7,36.2,,
1298,2020-03-21,23:00:00,,44.300708,10.431042,70,59.4,1026.3,18.0,70.0,,16.4,4.8,7.1,,3.7,35.8,,
1299,2020-03-23,11:00:00,,41.07795,14.331220000000002,32,40.0,1018.0,29.0,56.0,,13.0,6.1,10.8,31.7,1.2,,0.0,
1300,2020-03-22,23:00:00,,44.500017,11.328501,50,39.5,1028.5,19.0,50.0,,5.0,7.2,,0.1,14.2,38.6,-7.5,
1301,2020-03-22,23:00:00,,44.096869,12.403328,34,43.0,1027.7,20.0,34.0,,5.5,8.7,17.5,0.1,7.4,31.7,,
1302,2020-03-22,23:00:00,,41.63729,13.35094,95,44.1,1006.4,34.0,95.0,0.6,10.5,1.0,5.5,0.1,3.7,29.7,,
1303,2020-03-23,12:00:00,,40.66142,14.80449,33,1.0,1014.8,27.0,61.0,0.1,0.5,,,5.5,1.6,33.1,,
1304,2020-03-22,23:00:00,,41.883706,12.3337009,91,31.5,1015.0,35.0,91.0,0.6,12.5,10.0,21.1,0.1,8.3,19.5,,
1305,2020-03-21,23:00:00,,45.28398,9.86340258,95,41.0,1022.8,39.0,95.0,,6.1,12.0,23.0,,,,,
1306,2020-03-21,23:00:00,,45.04650286,11.18094889,95,33.0,1027.6,44.0,95.0,,8.8,10.0,20.0,,6.4,,,
1307,2020-03-22,23:00:00,,43.872401192971,11.104666288873998,55,26.5,1025.1,18.0,55.0,,7.7,10.5,19.5,0.1,11.5,,,
1308,2020-03-23,11:00:00,,41.04592,14.37809,-,40.0,1018.0,24.0,69.0,,13.0,6.1,10.8,,2.6,10.6,0.0,
1309,2020-03-23,12:00:00,,40.863690000000005,14.25451,21,40.0,1018.0,33.0,60.0,,13.0,6.1,10.8,1.0,0.6,20.5,0.0,
1310,2020-03-18,07:00:00,,40.97548,14.2114,2,43.5,1023.8,35.0,84.0,,20.0,5.5,9.5,1.9,12.9,,,
1311,2020-03-23,12:00:00,,40.990520000000004,14.42397,31,38.5,1018.0,26.0,74.0,0.4,12.5,6.9,10.8,1.0,1.9,30.9,-1.0,
1312,2020-03-21,23:00:00,,44.823890000000006,9.830369000000001,41,83.0,1013.1,16.0,76.0,,9.4,,,0.1,12.4,41.1,,
1313,2020-03-22,23:00:00,,42.77621678315,11.118456357026998,53,34.0,1022.0,16.0,53.0,,11.0,12.3,16.4,,11.9,,-4.0,
1314,2020-03-23,11:00:00,,40.853609999999996,14.27167,71,38.5,1018.0,38.0,71.0,0.4,12.5,6.9,10.8,1.9,3.2,,-1.0,
1315,2020-03-21,23:00:00,,45.038544,9.669349,72,83.0,1013.1,31.0,72.0,,9.4,,,0.1,6.9,40.3,,
1316,2020-03-21,23:00:00,,44.527432,11.982355,72,75.0,1019.5,40.0,72.0,5.1,11.2,11.5,15.8,0.1,6.4,32.5,,
1317,2020-03-21,23:00:00,,43.93183,12.62728,89,66.0,1018.0,30.0,89.0,,12.0,5.1,,,5.1,40.3,6.0,
1318,2020-03-21,23:00:00,,45.4099034,8.7875429,91,55.0,1025.0,,91.0,,6.1,8.4,19.0,,,,,
1319,2020-03-21,23:00:00,,45.626104,9.025004,68,44.0,1028.2,23.0,68.0,,5.0,7.0,10.6,,12.4,48.4,,
1320,2020-03-22,23:00:00,,44.029626188391,10.133072297499,70,34.0,1035.0,23.0,70.0,,12.7,5.0,8.0,,11.5,,,
1321,2020-03-22,23:00:00,,43.87191227785999,11.092564625561,59,26.5,1025.1,19.0,59.0,,7.7,10.5,19.5,,9.2,,,
1322,2020-03-22,23:00:00,,43.552268087855,10.329007715785,55,26.0,1024.0,17.0,55.0,,11.0,10.8,15.4,0.1,10.6,,-7.5,
1323,2020-03-21,23:00:00,,44.842488,11.613141,33,51.6,1019.0,33.0,102.0,,11.4,2.0,,0.1,12.8,39.4,,
1324,2020-03-21,23:00:00,,44.839749,11.961252,72,67.5,1016.0,29.0,72.0,,10.8,11.7,12.5,0.1,4.2,40.3,,
1325,2020-03-21,23:00:00,,45.470501,9.19746075,78,48.0,1027.0,33.0,78.0,,5.5,,,0.1,26.6,,,
1326,2020-03-21,23:00:00,,45.515945,10.21914764,119,35.0,1012.5,44.0,119.0,1.6,6.6,5.0,6.0,,12.4,41.9,,
1327,2020-03-21,23:00:00,,44.824263,11.649617999999998,70,62.5,1019.2,28.0,70.0,,11.8,3.5,11.7,0.1,6.9,39.8,,
1328,2020-03-21,23:00:00,,44.419261,12.225385000000001,87,77.3,1019.8,32.0,87.0,5.1,10.9,14.3,18.3,0.1,11.0,40.3,,
1329,2020-03-23,11:00:00,,40.86427,14.341079999999998,72,38.5,1018.0,38.0,72.0,1.9,12.5,6.9,10.8,4.6,5.2,,-1.0,
1330,2020-03-21,23:00:00,,45.64971,9.60123469,85,46.0,1028.5,26.0,85.0,,5.0,2.0,,0.1,9.6,,-5.5,
1331,2020-03-21,23:00:00,,45.19468231,9.16464919,80,40.6,1030.1,25.0,80.0,2.1,6.5,5.3,16.3,,19.7,44.3,,
1332,2020-03-21,23:00:00,,44.740896,11.941937,63,62.5,1019.2,29.0,63.0,,11.8,3.5,11.7,0.1,6.4,41.9,,
1333,2020-03-21,23:00:00,,44.72021229999999,7.4383072,70,71.8,1021.4,,70.0,,7.3,2.1,3.5,,,,,
1334,2020-03-22,23:00:00,,43.71153749249,10.409876134347,65,23.0,1023.9,20.0,65.0,,12.0,13.3,15.3,0.1,9.2,,,
1335,2020-03-22,23:00:00,,44.355422,11.720672,21,57.5,1027.1,21.0,76.0,,-1.9,12.0,,,7.8,38.6,,
1338,2020-03-21,23:00:00,"Al Camino, Via Borgo Vico, Bignanico, Vico, Como, Lombardia, 22100, Italia",45.81504217,9.06697886,59,50.0,1013.2,22.0,59.0,0.6,4.4,5.0,9.0,0.1,14.2,47.6,,
1339,2020-03-22,23:00:00,"Scuola Primaria Giosuè Carducci, Viale Ugo Bassi, Campo di Marte, Quartiere 2, Firenze, Toscana, 50137, Italia",43.784169388287,11.286879604208,53,35.6,1021.1,16.0,53.0,0.8,7.7,,,0.1,8.3,,-6.6,
1340,2020-03-23,14:00:00,"SP163, Sant'Agata Irpina, Solofra, Avellino, Campania, 83025, Italia",40.83555,14.824589999999999,6,1.0,1015.0,26.0,59.0,0.3,0.5,,,6.4,1.1,,,
1341,2020-03-23,13:00:00,"Via del Carmine, Fratte, Brignano Inferiore, Salerno, Campania, 84126, Italia",40.683890000000005,14.769720000000001,50,1.0,1014.9,14.0,50.0,,0.5,,,0.2,2.7,,,
1342,2020-03-21,23:00:00,"Cantavenna, Gabiano, Alessandria, Piemonte, Italia",45.159718,8.226189100000001,80,38.3,1026.2,,80.0,,6.8,1.2,,0.1,,,,
1346,2020-03-22,23:00:00,"Via Verdi, San Pasquale, Cassino, Frosinone, Lazio, Italia",41.4907889,13.833377599999999,107,24.0,1026.6,40.0,107.0,0.3,15.0,14.0,21.0,0.1,5.5,19.1,,
1349,2020-03-22,23:00:00,"iperoil, Via Cipro, Balduina, Quartiere XIV Trionfale, Roma, Roma Capitale, Lazio, 00165, Italia",41.9071831,12.446687599999999,76,31.5,1015.0,30.0,76.0,0.3,12.5,10.0,21.1,0.1,6.9,25.6,,
1350,2020-03-21,23:00:00,"Piccoli, Via Paribelli, Sondrio, Comunità Montana della Valtellina di Sondrio, Sondrio, Lombardia, 23100, Italia",46.16785664,9.87921169,50,53.0,1024.7,13.0,50.0,,8.3,4.0,12.0,,6.0,41.1,,
1353,2020-03-23,14:00:00,"Scuola Media Statale Francesco Solimena, Via Francesco Nola, Casale del Pozzo, Nocera Inferiore, Salerno, Campania, 84014, Italia",40.7404,14.64345,3,54.7,1016.7,37.0,63.0,2.8,6.6,11.5,20.7,1.9,2.3,,,
1354,2020-03-21,23:00:00,"Via Antonio Meucci, Loreto, Bergamo, Lombardia, 24128, Italia",45.691044,9.64366225,74,50.6,1027.7,25.0,74.0,,4.4,0.2,,0.1,9.2,45.5,,
1357,2020-03-21,23:00:00,"Strada Provinciale 64 Prealpina Orobica, Cassina Valsassina, Lecco, Lombardia, 23817, Italia",45.91279097,9.49754261,55,69.8,1025.1,20.0,55.0,,0.1,2.0,5.1,,4.6,49.6,,
1358,2020-03-22,23:00:00,"Farmacia, 5, Piazza Benedetto Cairoli, Rione VII Regola, Municipio Roma I, Roma, Roma Capitale, Lazio, 00186, Italia",41.8932669,12.4753855,53,31.5,1015.0,35.0,53.0,,12.5,10.0,21.1,,8.3,23.2,,
1359,2020-03-22,23:00:00,"Via Guglielmo Marconi, Sant'Agata, Ferentino, Frosinone, Lazio, 03013, Italia",41.695678799999996,13.2577285,109,44.1,1006.4,41.0,109.0,0.6,10.5,1.0,5.5,0.1,3.2,29.7,,
1362,2020-03-23,14:00:00,"Via della Salute, Portici, Napoli, Campania, 80055, Italia",40.81588,14.34927,32,41.0,1018.0,23.0,67.0,,10.0,6.4,10.8,,2.2,32.4,-2.5,
1365,2020-03-21,23:00:00,"Via Libertà, Cornale e Bastida, Pavia, Lombardia, Italia",45.04008561,8.91415717,74,3.0,,,74.0,,10.7,10.7,13.2,0.1,7.8,41.5,,
1366,2020-03-22,23:00:00,"Isidoro e Maria - Pizzeria Friggitoria, Viale Roma, La Pietrara, Le Muratelle, Guidonia Montecelio, Roma Capitale, Lazio, 00010, Italia",41.9939694,12.7245045,78,33.0,1014.6,28.0,78.0,0.4,11.6,,,,6.4,24.8,,
1367,2020-03-21,23:00:00,"Scuola Secondaria di Primo Grado Don G. Ticozzi, 48, Via Mentana, Rancio Inferiore, San Giovanni, Lecco, Lombardia, 23900, Italia",45.86375372,9.39995481,61,69.8,1025.1,20.0,61.0,,0.1,2.0,5.1,,10.1,43.9,,
1368,2020-03-22,23:00:00,"Via Raffaello Gambogi, Ardenza, Montenero basso, Livorno, Toscana, 57128, Italia",43.517506738783,10.321031260215,53,26.0,1024.0,16.0,53.0,,11.0,10.8,15.4,0.1,8.3,28.9,-7.5,
1370,2020-03-22,23:00:00,"Via Giovanni Pascoli, Montelonti, Poggibonsi, Siena, Toscana, 53036, Italia",43.470437486833,11.141284549758,57,59.0,1019.0,17.0,57.0,,4.4,3.0,3.0,,6.0,,,
1371,2020-03-23,14:00:00,"Stadio Ciro Vigorito, Rotonda degli Atleti, Trappeto, Libertà, Benevento, Campania, 82100, Italia",41.11575,14.779979999999998,34,46.9,1018.6,32.0,55.0,,9.5,9.3,18.1,,1.4,33.6,,
1372,2020-03-21,23:00:00,"Ufficio elettorale, Via Elvio Copelli, Motta, Casbeno, Varese, Lombardia, 21100, Italia",45.8169745,8.82024911,76,50.0,1030.9,21.0,76.0,,3.3,7.0,11.0,0.1,22.9,,,
1373,2020-03-21,23:00:00,"Via Malpasso, Caselle, Schivenoglia, Unione dei comuni Isola Mantovana, Mantova, Lombardia, Italia",45.01688067,11.07609728,93,33.0,1027.6,41.0,93.0,2.6,8.8,10.0,20.0,0.1,9.2,49.2,,
1374,2020-03-21,23:00:00,"Bersano, Besenzone, Piacenza, Emilia-Romagna, 43011, Italia",44.9895,10.019200999999999,55,61.5,1016.3,16.0,55.0,5.1,11.6,9.1,15.5,0.1,6.4,38.2,,
1375,2020-03-22,23:00:00,"5, Via Giuseppe Saragat, Vedole, Colorno, Emilia-Romagna, 43052, Italia",44.925963,10.371914,55,87.0,1008.7,11.0,55.0,5.1,7.7,,0.1,,3.7,26.4,,
1377,2020-03-23,14:00:00,"Via Filippo Brunelleschi, Caserta, Casolla, Caserta, Campania, 81100, Italia",41.08444,14.34472,36,38.8,1011.0,14.0,34.0,,10.9,5.1,,,1.6,36.0,-2.6,
1379,2020-03-23,13:00:00,"Vico I Gagliardi, Municipalità 3, Napoli, Campania, 80137, Italia",40.85419,14.25133,38,50.2,1018.0,21.0,38.0,,9.4,3.7,,2.8,4.7,,,
1380,2020-03-21,23:00:00,"Bretella Treviglio-Casirate, Casirate d'Adda, Bergamo, Lombardia, 24047, Italia",45.49822794,9.55624181,82,46.0,1028.5,30.0,82.0,,5.0,2.0,,,10.6,45.5,-5.5,
1382,2020-03-21,23:00:00,"via C. Battisti, Spinadesco, Cremona, Lombardia, 26028, Italia",45.15047339,9.93059842,89,34.2,1026.0,30.0,89.0,,7.0,2.7,9.0,,13.3,44.3,,
1383,2020-03-21,23:00:00,"Via Padre Sergio Mossoni, Darfo Boario Terme, Comunità montana della valle Camonica, Brescia, Lombardia, 25041, Italia",45.87460256,10.17736553,72,55.3,1026.7,22.0,72.0,,5.0,5.0,9.8,,7.4,48.0,,
1384,2020-03-22,23:00:00,"Via Cassia, Chiusarelle, Acquapendente, Viterbo, Lazio, 01021, Italia",42.7477229,11.8630202,57,54.0,1022.0,18.0,57.0,0.5,6.1,12.0,30.0,0.1,1.9,29.7,,
1385,2020-03-23,14:00:00,"Via Appia, San Vitaliano, Napoli, Campania, 80023, Italia",40.92431,14.481329999999998,37,46.9,1018.6,32.0,58.0,3.2,9.5,9.3,18.1,,2.4,36.6,,
1386,2020-03-21,23:00:00,"Villa Zorn, 113, Via Cesare da Sesto, Rondò, Torretta, Sesto San Giovanni, Milano, Lombardia, 20099, Italia",45.53476819,9.23610903,70,48.0,1027.0,,70.0,,5.5,,,0.1,23.8,,,
1388,2020-03-22,23:00:00,"Casanova Madonna della Strada, Leonessa, Rieti, Lazio, Italia",42.5660721,12.962444999999999,61,45.0,1015.0,18.0,61.0,0.4,-5.0,5.6,13.8,0.1,1.4,38.6,-15.0,
1389,2020-03-21,23:00:00,"Via delle Caselle, Albarola, Sant'Andrea, Lodi, Lombardia, 26900, Italia",45.30278678,9.49528589,87,49.3,1026.6,35.0,87.0,,6.6,1.5,12.6,,22.9,42.3,,
1390,2020-03-22,23:00:00,"Via Danimarca, Colle Laghetto, Guidonia Montecelio, Roma Capitale, Lazio, 00012, Italia",41.96440629999999,12.6684397,76,33.0,1016.6,30.0,76.0,0.4,10.5,12.0,23.0,,6.4,24.8,,
1395,2020-03-22,23:00:00,"SP72, Malcantone, Torrile, Emilia-Romagna, 43056, Italia",44.890934,10.399611,53,87.0,1008.7,18.0,53.0,5.1,7.7,,0.1,,3.7,32.1,,
1397,2020-03-22,23:00:00,"Piazza Marconi, Regina Pacis, Rieti, Lazio, Italia",42.404509000000004,12.8567281,61,45.0,1015.0,20.0,61.0,0.4,-5.0,5.6,13.8,0.1,0.5,30.1,-15.0,
1400,2020-03-22,23:00:00,"Scuola di equitazione, Viale Alexander Dubcek, Quartiere II Parioli, Roma, Roma Capitale, Lazio, 00199, Italia",41.9328321,12.501247300000001,82,31.5,1015.0,31.0,82.0,0.3,12.5,10.0,21.1,0.1,8.3,23.2,,
1401,2020-03-22,23:00:00,"Badia di Santa Maria della Neve, Strada della Badia, Vigatto, Langhirano, Emilia-Romagna, 43037, Italia",44.658226,10.289367,53,87.0,1008.7,20.0,53.0,,7.7,,0.1,,6.9,28.5,,
1404,2020-03-23,14:00:00,"Ottati, Salerno, Campania, 84020, Italia",40.470596,15.298722999999995,6,1.0,1014.9,25.0,70.0,0.6,0.5,,,5.5,2.8,,,
1406,2020-03-21,23:00:00,"Via Caduti del Lavoro, Calusco d'Adda, Bergamo, Lombardia, 24039, Italia",45.69043647,9.48426111,59,57.0,1029.6,21.0,59.0,1.1,3.3,0.5,0.5,0.1,6.9,42.3,,
1407,2020-03-22,23:00:00,"Via di Paganico, Tassignano, Capannori, Lucca, Toscana, 55012, Italia",43.838363142651,10.573105456095,82,23.2,1026.0,29.0,82.0,1.4,8.8,22.4,24.4,,9.6,,,
1408,2020-03-23,14:00:00,"Via Piave, Ponticelli, Contrada Bagnoli, Avellino, Campania, 83100, Italia",40.918820000000004,14.78553,-,46.9,1018.6,37.0,88.0,,9.5,9.3,18.1,2.8,3.1,,,
1409,2020-03-20,23:00:00,"Via degli Ospedalieri, Zaist, Cremona, Lombardia, 26100, Italia",45.14254358,10.04384767,107,34.2,1026.0,52.0,107.0,1.1,7.0,2.7,9.0,0.1,27.5,37.8,,
1412,2020-03-22,23:00:00,"Libera Università Internazionale degli Studi Sociali (LUISS) Guido Carli, Via Panama, Municipio Roma II, Roma, Roma Capitale, Lazio, 00197, Italia",41.9248746,12.4934413,82,31.5,1015.0,33.0,82.0,0.3,12.5,10.0,21.1,0.1,4.6,23.2,,
1415,2020-03-22,23:00:00,"Mariottini, Via Ristoro d'Arezzo, Arezzo, Colle di Santa Maria, Arezzo, Toscana, 52100, Italia",43.458591187680994,11.888247347751,55,35.0,,17.0,55.0,,4.4,12.5,26.5,,5.5,,,
1418,2020-03-22,23:00:00,"Via di Villa Guglielmi, Isola Sacra, Fiumicino, Roma Capitale, Lazio, 00121, Italia",41.7702662,12.236676800000001,85,28.5,1018.5,30.0,85.0,0.6,12.5,8.7,,0.1,8.3,27.7,-5.0,
1419,2020-03-23,14:00:00,"CAM Casoria Contemporary Art Museum, 63, Via Duca d'Aosta, Arpino, Casoria, Napoli, Campania, 80031, Italia",40.914629999999995,14.29866,29,43.0,1018.0,35.0,86.0,,10.0,6.6,10.8,,2.2,28.9,-2.0,
1422,2020-03-21,23:00:00,"Varco ZTL, Via Andrea Verga, Geromina, Treviglio, Bergamo, Lombardia, 24047, Italia",45.51933533,9.59201917,65,46.0,1028.5,30.0,65.0,0.6,5.0,2.0,,0.1,16.5,,-5.5,
1424,2020-03-22,23:00:00,"Via Vittor Pisani, Fontanini, Viareggio, Unione dei comuni della Versilia, Lucca, Toscana, 55043, Italia",43.881437296938,10.244316772468,76,23.0,1023.9,26.0,76.0,,12.0,13.3,15.3,,8.3,,,
1425,2020-03-22,23:00:00,"Via Amerigo Vespucci, Montale, Pistoia, Toscana, 51031, Italia",43.913660405481004,11.006226278906,57,23.0,1025.7,17.0,57.0,,7.2,12.0,23.0,,4.2,,,
1428,2020-03-22,23:00:00,"Bezze, Torrile, Emilia-Romagna, 43056, Italia",44.921606,10.326172999999999,53,87.0,1008.7,17.0,53.0,5.1,7.7,,0.1,,3.7,26.4,,
1430,2020-03-21,23:00:00,"stazione meteo, Via San Martino e Solferino, Cascina Basioli, Ponti sul Mincio, Mantova, Lombardia, 37019, Italia",45.41277633,10.68336214,127,40.7,1021.1,51.0,127.0,,7.5,1.0,,,12.4,43.1,-5.0,
1432,2020-03-23,14:00:00,"Via Italo Calvino, Acerra, Napoli, Campania, 80011, Italia",40.97971,14.401,3,43.0,1018.0,38.0,107.0,2.6,10.0,6.6,10.8,1.9,1.2,,-2.0,
1433,2020-03-21,23:00:00,"Via Nicolò Macchiavelli, Molinetto, San Giuseppe, Monza, Monza e della Brianza, Lombardia, 20900, Italia",45.574117,9.263808000000001,70,53.0,1027.1,26.0,70.0,2.1,5.0,3.0,8.0,0.1,23.4,50.0,,
1434,2020-03-21,23:00:00,"Scuola Media Leon Battista Alberti, Via Fratelli Cairoli, Fiera-Catena, Mantova, Lombardia, 46 100, Italia",45.16057658,10.79557331,104,32.0,1028.3,46.0,104.0,,8.9,7.9,14.2,0.1,12.8,43.1,,
1436,2020-03-21,23:00:00,"11/H, Via Statale, Cernusco Lombardone, Lecco, Lombardia, 23870, Italia",45.69795956,9.40619194,65,56.0,1028.5,26.0,65.0,,4.5,2.2,,0.1,11.5,46.8,,
1438,2020-03-23,14:00:00,"Via G. Clarizia, Stella, Santa Lucia, Battipaglia, Salerno, Campania, 84091, Italia",40.61107,14.97584,33,1.0,1014.9,20.0,56.0,2.8,0.5,,,,3.0,33.1,,
1440,2020-03-23,14:00:00,"Via Ottavio Caiazzo, Municipalità 5, Napoli, Campania, 80129, Italia",40.84936,14.231110000000001,-,50.1,1018.0,31.0,,,9.4,4.1,,,5.3,,,
1443,2020-03-22,23:00:00,"Via Latina, Colleferro Scalo, Colleferro, Roma Capitale, Lazio, 00034, Italia",41.7272528,13.0037837,107,31.0,1015.3,41.0,107.0,0.2,13.8,7.0,18.0,0.1,6.4,26.0,,
1447,2020-03-21,23:00:00,"Piazza Luigi Cadorna, Corso Vittorio Emanuele II, La Cascinetta, Cremona, Lombardia, 26100, Italia",45.13195042,10.01574064,85,34.2,1026.0,30.0,85.0,1.6,7.0,2.7,9.0,0.1,14.7,,,
1450,2020-03-23,13:00:00,"Area sosta Sannio camper club, 59, Via Domenico Mustilli, Trescene, Ponticelli, Benevento, Campania, 82100, Italia",41.13146,14.78938,20,46.9,1018.6,12.0,20.0,,9.5,9.3,18.1,,4.0,,,
1453,2020-03-22,23:00:00,"Chiesa Cristiana Evangelica, Via del Pioppeto, Latina, Lazio, 04013, Italia",41.5338395,12.9467669,65,34.9,1014.1,22.0,65.0,0.2,16.6,0.3,3.9,0.1,4.6,30.0,,
1454,2020-03-23,14:00:00,"Via Giovanni Calzolaio, Acerra, Napoli, Campania, 80011, Italia",40.94108,14.369810000000001,-,43.0,1018.0,31.0,63.0,,10.0,6.6,10.8,6.4,2.7,,-2.0,
1455,2020-03-21,23:00:00,"Via Monsignore P. Anglese, Buscarella, Sannazzaro de' Burgondi, Pavia, Lombardia, 27039, Italia",45.10277464,8.90418742,74,3.0,,24.0,74.0,22.3,10.7,10.7,13.2,,13.8,,,
1456,2020-03-21,23:00:00,"Via della Precacesa, San Fereolo, Lodi, Lombardia, 26900, Italia",45.30601628,9.48527511,61,49.3,1026.6,31.0,61.0,2.1,6.6,1.5,12.6,0.1,17.4,,,
1457,2020-03-21,23:00:00,"Salita della Memoria, Brescia Antica, Zona Centro, Brescia, Lombardia, 25121, Italia",45.54006456,10.22281989,91,35.0,1012.5,34.0,91.0,,6.6,5.0,6.0,0.1,13.3,,,
1458,2020-03-22,23:00:00,"Piazza Giuseppe Verdi, Via Guglielmo Marconi, Centro Giovanni XXIII, Viterbo, Lazio, 01100, Italia",42.4206766,12.107669,53,38.0,1019.0,16.0,53.0,0.5,6.6,6.0,10.0,0.1,1.9,30.9,,
1459,2020-03-22,23:00:00,"6, Via Grazia Deledda, Bogolese, Sorbolo Mezzani, Emilia-Romagna, 43058, Italia",44.829145000000004,10.391537,53,87.0,1008.7,16.0,53.0,5.1,7.7,,0.1,,3.7,26.9,,
1460,2020-03-22,23:00:00,"Piazza Cesare Beccaria, San Niccolò, Quartiere 1, Firenze, Toscana, 50121, Italia",43.770585907976,11.271415330415001,55,35.6,1021.1,17.0,55.0,0.8,7.7,,,0.1,14.7,,-6.6,
1461,2020-03-23,14:00:00,"Chiesa Sacra Famiglia, Via Nicola Buonservizi, Fratte, Brignano Inferiore, Salerno, Campania, 84135, Italia",40.69536,14.777510000000001,30,1.0,1014.9,,69.0,,0.5,,,,2.2,30.1,,
1463,2020-03-22,23:00:00,"88, Via XXIV Maggio, I Passi, Porta a Lucca, Pisa, Toscana, 56123, Italia",43.73635268547,10.400971437911,63,23.0,1023.9,21.0,63.0,,12.0,13.3,15.3,0.1,7.8,,,
1466,2020-03-23,14:00:00,"Chiesa di Sant'Antonio da Padova, Corso Pietro Giannone, Caserta, Aldifreda, Caserta, Campania, 81100, Italia",41.07795,14.331220000000002,2,43.0,1018.0,29.0,56.0,,10.0,6.6,10.8,1.9,1.4,,-2.0,
1469,2020-03-22,23:00:00,"Monumento ai tre Martiri Toscani, Viale Giuseppe Mazzini, Centro Storico, Frosinone, Lazio, 03100, Italia",41.63729,13.35094,95,44.1,1006.4,34.0,95.0,0.6,10.5,1.0,5.5,0.1,3.7,29.7,,
1470,2020-03-23,14:00:00,"Europa, Bottiglieri, Salerno, Campania, Italia",40.66142,14.80449,35,1.0,1014.9,27.0,61.0,0.1,0.5,,,4.6,1.4,34.9,,
1471,2020-03-22,23:00:00,"Via Valentino Cigliutti, Municipio Roma XII, Roma, Roma Capitale, Lazio, Italia",41.883706,12.3337009,91,31.5,1015.0,35.0,91.0,0.6,12.5,10.0,21.1,0.1,8.3,19.5,,
1473,2020-03-21,23:00:00,"Tamoil, Via Barbi, Capo di Villa, Borgocarbonara, Mantova, Lombardia, 45037, Italia",45.04650286,11.18094889,95,33.0,1027.6,44.0,95.0,,8.8,10.0,20.0,,6.4,,,
1474,2020-03-22,23:00:00,"PAM, 132, Via Emilio Boni, Soccorso, La Pietà, Prato, Toscana, 59100, Italia",43.872401192971,11.104666288873998,55,26.5,1025.1,18.0,55.0,,7.7,10.5,19.5,0.1,11.5,,,
1475,2020-03-23,14:00:00,"Via della Libertà, Maddaloni, Caserta, Campania, 81024, Italia",41.04592,14.37809,23,43.0,1018.0,24.0,69.0,,10.0,6.6,10.8,,1.3,22.7,-2.0,
1476,2020-03-23,14:00:00,"Municipalità 3, Napoli, Campania, 80137, Italia",40.863690000000005,14.25451,21,43.0,1018.0,33.0,60.0,,10.0,6.6,10.8,1.0,0.7,21.0,-2.0,
1478,2020-03-23,13:00:00,"Istituto Comprensivo ""Aldo Moro"" Plesso Cancello, Via XXI Giugno, San Felice a Cancello, Caserta, Campania, 81027, Italia",40.990520000000004,14.42397,31,38.8,1011.0,26.0,74.0,0.4,10.9,5.1,,1.0,1.6,31.3,-2.6,
1480,2020-03-22,23:00:00,"Via Iugoslavia, Sugherella, Grosseto, Toscana, 58100, Italia",42.77621678315,11.118456357026998,53,34.0,1022.0,16.0,53.0,,11.0,12.3,16.4,,11.9,,-4.0,
1481,2020-03-23,13:00:00,"Burger King, Corso Novara, Municipalità 4, Napoli, Campania, 80142, Italia",40.853609999999996,14.27167,42,43.0,1018.0,25.0,42.0,0.4,10.0,6.6,10.8,1.9,4.7,,-2.0,
1486,2020-03-21,23:00:00,"Centro Fusetti, 8, Piazza Santuario, Stella, Cascinazza, Saronno, Varese, Lombardia, 21047, Italia",45.626104,9.025004,68,44.0,1028.2,23.0,68.0,,5.0,7.0,10.6,,12.4,48.4,,
1487,2020-03-22,23:00:00,"Pista Viale Roma, Bargana, Massa, Toscana, 54100, Italia",44.029626188391,10.133072297499,70,34.0,1035.0,23.0,70.0,,12.7,5.0,8.0,,11.5,,,
1488,2020-03-22,23:00:00,"Via Ferrara, Soccorso, Le Badie, Prato, Toscana, 59100, Italia",43.87191227785999,11.092564625561,59,26.5,1025.1,19.0,59.0,,7.7,10.5,19.5,,9.2,,,
1489,2020-03-22,23:00:00,"36, Via Alfredo Catalani, Stazione, Campo di Marte, Livorno, Toscana, 57124, Italia",43.552268087855,10.329007715785,55,26.0,1024.0,17.0,55.0,,11.0,10.8,15.4,0.1,10.6,,-7.5,
1492,2020-03-21,23:00:00,"Via Senato, Guastalla, Porta Venezia, Milano, Lombardia, 20121, Italia",45.470501,9.19746075,78,48.0,1027.0,33.0,78.0,,5.5,,,0.1,26.6,,,
1493,2020-03-21,23:00:00,"Lamarmora, Zona Sud, Brescia, Lombardia, Italia",45.515945,10.21914764,119,35.0,1012.5,44.0,119.0,1.6,6.6,5.0,6.0,,12.4,41.9,,
1496,2020-03-23,13:00:00,"SS162dir, Municipalità 6, Napoli, Campania, 80147, Italia",40.86427,14.341079999999998,76,43.0,1018.0,27.0,76.0,2.4,10.0,6.6,10.8,4.6,5.9,,-2.0,
